state,county,latitude,longitude,1,2,3,4,5,6,7,8,9,10,11,12,13,14,15,16,17,18,19,20,21,22,23,24,25,26,27,28,29,30,31,32,33,34,35,36,37,38,39,40,41,42,43,44,45,46,47,48,49,50,51,52,53,54,55
AK,ALEUTIANS EAST BOROUGH,54.13,165.88,1.14,2,2,2,2,2,3,3,4,4,4,4,7.43,10.14,11,11.29,12.86,14.43,15,15,15.14,17.43,19.43,21,33.14,40,40,39,39,38,38,38.57,55.86,81.71,222.86,344,354.29,359.71,362,362,362.71,363,-1,-1,-1,-1,-1,-1,-1,-1,-1,-1,-1,-1,-1
AK,ALEUTIANS WEST CENSUS AREA,51.9,176.67,2.57,3.86,4,4,4.86,6,35.29,86.14,88.43,88,88.71,89.14,91.57,92.14,93,93.43,95.14,95,95.29,97.57,97.43,99.43,102.43,105,106.14,107.57,120.29,156.43,168.14,182.43,202,222.29,251.86,288,325,361.71,402,489.57,557.43,625,640.14,645,649.29,-1,-1,-1,-1,-1,-1,-1,-1,-1,-1,-1,-1
AK,ANCHORAGE,61.22,149.85,35.86,71.14,108.29,143.43,164.14,180.14,191.71,198.86,206.71,215.14,265,322.29,365,420.57,527.14,682.71,904.71,1222.29,1733,2155.14,2450.29,2728.86,2969.86,3266.14,3552.86,3844.57,4168.71,4653.14,5268,5981.57,6768.71,7941.29,9332.86,11244.86,13735.29,15841.86,17542.71,19470.14,21046.14,22057.29,22800.86,23615,24293.14,24759.71,25167.43,25499.14,25819.57,26097.57,26363,26671.57,27028.71,27371,27808.29,-1,-1
AK,BETHEL CENSUS AREA,60.78,161.79,0.71,1,1,1,1,1.14,2,2.57,3,3.43,6,8.57,11.43,13.57,17.71,19,20.57,23.86,25.86,37.86,56.71,64.14,77.71,90,105,118.71,147.43,207.71,297.71,418.14,556.14,799.71,1017.29,1299.29,1608.86,1818.29,2004.29,2117.29,2315,2740.71,2856.14,3038.29,3238.29,3366.71,3472.43,3511.14,3549.57,3575.71,3616,3669.86,3731,-1,-1,-1,-1
AK,BRISTOL BAY PLUS LAKE AND PENINSULA,58.75,156.54,0.57,1,1.57,3.86,7.57,18.57,38.14,50.86,62.57,67.57,68.43,72.71,75.86,76,75.86,76.29,81.71,87.86,90.86,93.86,95,96.86,101.57,107.29,114.71,122.71,136.86,143.43,145.29,151.29,154.71,156.71,157.29,158.86,160,166.29,168,167.29,173.14,176.86,176,176,176,176,182.86,-1,-1,-1,-1,-1,-1,-1,-1,-1,-1
AK,JUNEAU CITY AND BOROUGH,58.3,134.42,1.14,6.71,13.29,17.86,25.14,27,27,27.86,29.71,31.14,33,34.71,40.14,42,47.43,50.71,56.71,88.57,121.71,151.71,181.71,222.14,242.43,257.29,281.29,322.29,353,371.86,384.86,407.29,448.57,509,589.71,655.14,737.57,791.29,840.14,899.43,944.57,978.29,1013.43,1039,1055.43,1081.57,1108.29,1144,1172.71,1182.71,1203,1221,1237.14,1247.86,1255.14,-1,-1
AK,DENALI BOROUGH,63.33,148.33,0.29,1,1,1,2.71,3.86,4,4,4,4,4.57,5,5,6,11.43,14.43,17.29,22.57,28.71,32,35.14,38.86,41.14,43.57,49.57,56.14,59,59,59,61,62.14,65.71,67,67,67.29,70.29,73,74.43,76.14,79.86,-1,-1,-1,-1,-1,-1,-1,-1,-1,-1,-1,-1,-1,-1,-1
AK,DILLINGHAM CENSUS AREA,59.24,158.62,0.43,1,1,2.86,15.71,20.43,21,21.14,21,21.71,22.71,24.86,26.86,26,26,26.57,28.14,29.43,30.14,32.14,37.43,47.29,59.71,65.86,79.29,90.57,98.43,103.43,107.86,110.43,114.29,123.29,140.57,150.14,160.29,167.29,179.29,190.71,196.86,202,206.57,207,207,207,-1,-1,-1,-1,-1,-1,-1,-1,-1,-1,-1
AK,FAIRBANKS NORTH STAR BOROUGH,64.81,147.72,16,41.29,70.57,79,79.14,81.57,83.14,85,85,85,85.43,89.86,108.86,136.57,165.86,215.29,307.14,373,424.29,461.57,501.86,568,633.43,735.71,856.43,971.29,1078.86,1227.14,1485.29,1714,1913.29,2183.29,2441.86,2694.86,3012.57,3317,3565.86,4038,4470.86,4685,4904.71,5183.57,5478.57,5673,5788.71,5869.29,5953.43,6029.57,6147.86,6238.29,6327.29,6408.57,6481.86,-1,-1
AK,HAINES BOROUGH,59.16,135.86,0.71,1.29,4.57,5.43,6,6.43,7.14,8,8,8.86,10,10,9.43,9,9.43,10,10,10,11.57,11.43,12.29,14,15.43,16,16,16.71,17.14,18.57,20,20,20.71,20,21,22,23,23.43,24,24,24.86,25,25,25.71,-1,-1,-1,-1,-1,-1,-1,-1,-1,-1,-1,-1,-1
AK,KENAI PENINSULA BOROUGH,59.82,151.59,2.43,7.14,11.43,14.29,17.71,18,20.86,22.86,24.57,27.71,52.29,89.14,117.14,127.71,151.43,185.71,224.86,269.71,370.14,452,486.43,525.14,558.43,570,588.14,602.29,610.43,621.71,641.57,694.43,755.86,902.57,1131.43,1394.71,1785.86,2172.43,2614.14,2991.29,3252.71,3470.14,3578.57,3648.57,3742.43,3811.71,3855.57,3878.57,3902.14,3928.57,3949.14,3971.43,4003.14,4031.29,4055.86,-1,-1
AK,KETCHIKAN GATEWAY BOROUGH,55.61,131.58,2,12.14,14,14.43,15.14,16,16,16,16,16,16,16,19.43,25.14,28.43,30.14,32,35,43.14,48.43,51.57,54.29,57.43,60.71,64.57,64.71,67.86,68.14,69,72,75.86,78.71,85.86,119,162.71,181.43,191.14,206.29,217.71,224.29,228.57,239,252,263.71,267.43,273.86,285.71,300.43,326,348.57,360,363,368.71,372.43,-1
AK,KODIAK ISLAND BOROUGH,57.9,153.04,1,1,1,1,1,1,1,2,3.86,5.43,7,9,11.14,13.29,14,20.43,33.43,50.57,56,57.14,61.57,63.29,64.29,66,74.71,84.71,90.43,95.71,120.71,140,166.86,218.29,279,466.86,684.29,806.86,885.57,926,965,997.71,1018,1030.29,1039.43,1042.86,1051.14,1053.43,1052.86,1056,1060.14,-1,-1,-1,-1,-1,-1
AK,MATANUSKA-SUSITNA BOROUGH,61.58,149.44,0.29,2.14,3.86,8.86,16.29,20,21,21,21.14,22.86,25.57,34.29,41.71,53,69.71,106.29,135.71,173.86,220.29,284.14,338.43,380.57,428.71,474.43,504.57,537,575.86,603.57,653,723.29,816.29,990.86,1401.29,1812.71,2213.14,2483,3029.71,4432.29,5265,5714,6062,6393.43,6758.14,7040.57,7265.86,7426.71,7628.57,7906,8247.14,8515.14,8807,9103,9379.86,9661.71,-1
AK,NOME CENSUS AREA,63.47,162.11,0.86,1,1,1,1,2,3,3,4.43,5.86,7.71,10.43,14.14,18.29,19.57,20,22,25.86,31.71,39.29,47.57,52.29,56.43,67.57,82.86,101.86,110.86,123.14,135.29,148.29,160.57,178.57,216.86,242.71,251,262.86,268.43,277,282.71,292.57,302.29,308,313.14,319.86,321.71,324.29,327.43,329,331.29,334.71,-1,-1,-1,-1,-1
AK,NORTH SLOPE BOROUGH,68.15,151.71,0.86,1,1,3,4,4,4.71,6.71,10,15.57,19.86,26.71,35.29,41,51.29,65.14,88,123.29,149.14,165.14,202.71,238.29,271.29,307.29,367,399.14,448.14,539.43,642.43,735,778.57,808.43,852.86,939.14,966.57,974.29,979.29,986.86,997.86,1001.57,1009.29,1014.43,1023.86,1031.71,-1,-1,-1,-1,-1,-1,-1,-1,-1,-1,-1
AK,NORTHWEST ARCTIC BOROUGH,65.97,161.13,1.57,2,2.14,3.86,4,4,5,6.29,8,13.57,28.57,39.29,44.29,59.29,65.43,69.43,73.29,87.43,107.57,139.43,172.86,208.14,227,255.29,283.14,305.14,332.29,355.43,369.57,383.43,389.14,397.29,403.57,467.14,515.29,553.71,569,571.71,575.29,584.29,586,587.29,591.86,595,596.14,-1,-1,-1,-1,-1,-1,-1,-1,-1,-1
AK,PETERSBURG BOROUGH,56.79,134.19,1,1.14,2,2.86,3,3,3,3,3,3,3,3.86,5,7.57,8.86,9,9,9,9.57,10.86,11,11,11,11,10.14,10.43,11,11.86,14,16.43,18.29,19.43,20,20.43,22.57,25.86,25,25.14,26.14,32.14,39.57,43,43,44.29,45.57,47,70.86,124.29,139,144.86,145.29,-1,-1,-1,-1
AK,PRINCE OF WALES-HYDER CENSUS AREA,55.68,132.19,1,2,2,2,2,2,2,2,2,2.29,2.57,3,3,3,3,4.57,7.57,9,15,19.57,23.86,27.43,29.57,30,31,31.14,31,33,33.57,34.14,37.57,42.71,44.29,49.71,56.57,62.71,66.43,68.29,67.29,69.14,70,69,69,69.43,70,70,71.43,74.57,76,77,-1,-1,-1,-1,-1
AK,SITKA CITY AND BOROUGH,56.73,135,0.14,1,1,1,1,1.86,2.57,6.57,12,14.43,17.29,18,21,26.43,30.43,34.14,39.43,46.86,49.14,51,52.43,54.14,58.86,67.14,69,69.71,71.14,76.86,89,112.14,142,173.43,210.71,228.57,246.86,260.71,265.86,269.43,281.86,291,294,297.71,299,301.29,304.86,310.71,314.14,315.43,317.43,-1,-1,-1,-1,-1,-1
AK,SKAGWAY MUNICIPALITY,59.57,135.35,1,6.29,7.86,7,7,8.43,9.43,11,12.43,15,15.43,15.86,15,15,15,15,15,16,18,19,19,19,19,19,-1,-1,-1,-1,-1,-1,-1,-1,-1,-1,-1,-1,-1,-1,-1,-1,-1,-1,-1,-1,-1,-1,-1,-1,-1,-1,-1,-1,-1,-1,-1
AK,SOUTHEAST FAIRBANKS CENSUS AREA,64.04,145.73,1,1,1,1,1.29,2.14,3,3,3,4,4.86,7,11,16,21.29,23.29,25.43,26.29,28.71,30.43,32,32.29,33.14,34.14,35.57,39.86,45.29,47.29,59.57,71.57,89.43,109.86,161.57,236.57,286.71,333.29,363.86,384.71,401.14,406.14,410.71,410.86,420.86,433.29,441.43,442.14,443.43,455.71,493.57,528.43,576.57,-1,-1,-1,-1
AK,VALDEZ-CORDOVA CENSUS AREA,61.45,143.15,0.29,1,1,2,5.43,13,13.14,15.71,20.57,25.86,43.29,62.71,82.86,93.71,102.71,111.43,118.43,121.43,123,123,123.86,125.71,130,140,150.86,162.29,178.29,201.86,221,243.43,257.29,283.86,300.71,314.71,331.57,360.14,379.86,397,413.71,442.57,451,457.71,467.57,485.43,501.57,513.14,528.86,-1,-1,-1,-1,-1,-1,-1,-1
AK,WRANGELL CITY AND BOROUGH,55.95,131.96,0.43,1.86,3.86,7.71,8,8,8,8,10.14,14.57,14,14.71,16.71,18,18,19,19,19,19,19,19,19,19,19.29,19,19.14,21.14,22,23.29,23.14,24,24,24.43,24,24.57,25,25,25.86,26.86,28,29,29.14,-1,-1,-1,-1,-1,-1,-1,-1,-1,-1,-1,-1,-1
AK,YAKUTAT PLUS HOONAH-ANGOON,59.51,139.71,0.14,4.43,7.43,10,12,12.71,22,24.71,26.14,28.57,29.86,30.71,31.14,33.71,36.86,37,38.43,41.43,45.57,48,49,51,51,51,55.29,58.14,60.14,62,63,63,63.14,64.71,65.57,65.57,68,69,-1,-1,-1,-1,-1,-1,-1,-1,-1,-1,-1,-1,-1,-1,-1,-1,-1,-1,-1
AK,YUKON-KOYUKUK CENSUS AREA,62.63,160.2,0.43,1,1,1,1,1,1,1,1,1,1,1.14,2.14,3.14,5,16,33.57,42.86,48.71,55.14,62,69.29,73.14,74.71,78.29,81.29,83.57,86.86,96.43,104.57,115.14,124.43,131.29,143.14,162.71,175,185.57,196.57,205.14,207.86,221.14,242.86,256.14,262.86,268.57,306.86,321.29,332.14,333,335.57,342.14,345.57,-1,-1,-1
AL,AUTAUGA,32.43,86.65,2.43,8.29,13.43,22.29,30.14,40,55,88.14,128.43,182.86,234.57,288.71,374.71,456.57,535.29,635.71,741.29,871.86,973.86,1071.86,1218.71,1287,1354.86,1446.57,1517,1604.86,1711.14,1786.14,1844.71,1925.86,2007.86,2090.43,2199.86,2333.57,2505.86,2659.29,2827.86,3092.86,3434.29,3840.14,4113,4510.71,4967.71,5231,5461.43,5722.71,5914.29,6041,6153.71,6293.57,6377.71,6466.14,6525.86,-1,-1
AL,BALDWIN,30.88,87.77,1.57,13.57,35,74,114.29,159.57,184.29,219,255.29,274.43,294,327.29,377.86,430.71,592.57,900.57,1303.86,1907.86,2693.86,3208.43,3619.71,3924.14,4142,4471.86,4707.86,4939,5073.43,5494,6068.14,6206.29,6365.71,6647.71,6943.29,7237.86,7648,8202.71,8833.71,9725.43,10774.14,11842.43,12892.29,14103.71,15302.29,16254.57,17231.57,18103.14,18704,19098.43,19451.43,19745.43,19932.71,20144.29,20341.43,-1,-1
AL,BARBOUR,31.88,85.45,0.14,4.14,11.86,25.57,36.57,47.29,66.71,90.71,122.71,172.29,204.14,246.43,286.57,327.14,362.29,429.29,512.29,575,613.71,640.71,678.57,723,763.71,779.71,805,847.43,890.71,925.57,951.71,990.29,1042.14,1072.71,1104.86,1135.43,1165.14,1193.14,1239,1290.14,1362,1458,1573,1677.29,1750.14,1871,1966.86,2018.14,2050.29,2085,2124.57,2153.43,2195,2215,-1,-1,-1
AL,BIBB,32.94,87.17,1.14,6.14,14.86,28.43,38,42.43,45.29,49.71,60,75.14,82.86,107.29,129.29,162,192.57,227.14,269.14,321.43,374,442,484.71,520.43,547.43,579.14,605.71,629.29,654.71,684.57,730.71,781.86,836.14,878.29,930.71,986.86,1095.43,1192.71,1290.86,1442,1615.71,1756,1883.57,2049.14,2151.14,2227.57,2299.29,2343.86,2392.29,2418.86,2449.86,2463.14,2489.71,2527.29,-1,-1,-1
AL,BLOUNT,33.9,86.51,0.14,4.71,9.29,13.71,22.29,33,39.71,44.43,46,49.71,62.29,72.86,108.86,148.71,194.57,241.29,331,483.14,645.86,801.14,930.29,1008.29,1122.43,1265,1375.29,1456.57,1548.14,1614,1655.29,1714.43,1820.57,1937.57,2096.43,2310.14,2542.86,2759.43,2970.43,3316.43,3773.86,4211,4479.86,4761,5067.43,5297.57,5479.29,5695.43,5903.14,5969,6040.57,6114.14,6251.57,6317.14,6385.43,-1,-1
AL,BULLOCK,32.17,85.9,0.29,2.71,2.43,6,10.14,12.14,16,24.86,47,137.71,210.14,238.43,298.86,331.14,362,373.57,384.14,400.57,421.71,447.14,481.29,513,536.57,553,567.86,579.43,590.86,606.43,614.86,625.14,634.71,648,655.86,665,676.86,689.43,701.57,716.29,730.86,757.29,828.29,908.86,959,995.86,1049.57,1087.43,1127.57,1141.71,1155.43,1169.14,1177.57,1189.43,1195.43,-1,-1
AL,BUTLER,31.66,86.72,0.29,1,1.71,7.71,15.43,37.71,111.57,204,287.71,361.43,412.43,458.71,539.43,578.29,603.57,634.43,658.71,689.57,729.71,764,781.57,810.57,827.29,863.14,890.29,899.57,909.86,915.43,927.43,963.14,995.57,1011.29,1027.43,1054.43,1091.29,1137.43,1177.57,1246.14,1329.71,1407.14,1469.43,1558.14,1639,1698.43,1751.43,1822.43,1869.86,1908.71,1943.86,1976.71,2020.14,2055.43,2074.14,-1,-1
AL,CALHOUN,33.66,85.81,0.57,4.43,24.86,57.14,69.86,89.29,100.14,122.29,130,140.57,159.43,180.71,198.43,211.86,246.29,339.57,500.29,753.86,1062.43,1485.14,1813.43,2012.43,2264.86,2496.29,2785.43,3032.86,3292.43,3502.71,3651.14,3817.14,4036.14,4429.57,4841.29,5131.71,5500.29,5915.43,6323.14,7004.43,7713.57,8514.71,9181,9665.14,10417,11022.43,11470.86,11939.14,12347.14,12632,12916,13225.86,13908.14,14052.29,14154.86,14197.71,-1
AL,CHAMBERS,32.75,85.23,12.71,63.14,150.57,230.14,273.14,292.57,308.71,325,330.71,346.29,376.14,429.29,498.71,547.86,612.14,672.14,731.86,791.43,848.71,892.14,919.43,946.14,1000.86,1048.43,1078.14,1111.71,1151.43,1185.86,1224.71,1258.57,1326.14,1376,1453.14,1527,1633.57,1742.86,1862.57,1970,2076.14,2182.57,2329.86,2544.43,2751.71,2959.86,3140.86,3238.86,3299.57,3348,3392.71,3426.57,3438.14,3462.29,3476.86,-1,-1
AL,CHEROKEE,34.22,85.59,0.86,3.86,7,10.71,12.57,15,19.14,25.29,31,34.71,39.86,46.29,55.43,63.57,83.14,116.43,152.57,194.14,234,282.71,319.29,355.43,389.43,430.14,472.71,537.29,591.57,626.29,655.57,696.14,726.86,766.43,823,876.43,949.29,1009.86,1067.43,1152.71,1243.71,1340.71,1412,1490.86,1580.57,1629.86,1681.29,1720.71,1738.14,1750.43,1762.71,1777.43,1785.86,1792.29,1798.86,-1,-1
AL,CHILTON,32.84,86.62,3.86,13.71,24.86,36.86,47,53.14,62,73.14,83.43,95.29,111,127,153.29,188,228.57,297.29,403.57,549.14,683,799.14,887.29,955.71,1086,1237.29,1344.29,1444,1544.43,1617,1690.29,1757.14,1842.86,1919.86,1982.43,2047,2119,2208.43,2332,2486,2627.71,2780,2949.71,3161.86,3324.29,3411,3512.86,3581.86,3672.71,3761.14,3838.14,3897.57,3941.14,3991.86,4015.43,-1,-1
AL,CHOCTAW,32.08,88.22,0.86,4.29,7.71,13.71,26.29,45.57,59.57,78.86,130.57,150,155,166.71,183.71,188.43,194.57,209,230.71,253.14,273.71,284.86,298.43,312.57,324.43,330.57,338,343.29,347.71,358.86,372.29,382,389.43,394.57,402.29,408.86,413.71,422,436.57,447.86,466.29,484.29,490.86,497.43,509.71,517.57,528.71,538.57,542,545.14,548.86,555.43,568.86,579.71,583.14,-1,-1
AL,CLARKE,31.76,87.71,4.57,14.14,23.29,25,35.43,51.71,70,94.43,134.86,152.43,175.57,207.43,246.57,271.57,303.71,364.14,428.71,488.43,615.43,865.57,918.14,972.43,1011.43,1034.57,1046.86,1084.86,1131.86,1195.14,1245,1318.29,1390.29,1430.14,1482.29,1533.43,1577.57,1647.57,1863.71,2149.86,2265.29,2408.14,2571.57,2754.71,2937.43,3164.71,3306.29,3373.29,3414.71,3431.14,3442.43,3457.86,3470.43,3466.43,-1,-1,-1
AL,CLAY,33.18,86.09,1.29,6.71,11.71,15.71,19,21,25.57,27,27,27.14,28.43,30,30.86,36.57,61.71,79,104.71,150.14,199.86,248.29,295.71,327.14,355.29,402,458.71,525.57,574.29,601.29,633.57,684,734.29,766.86,804,835.43,874.29,911.14,950.86,993.43,1039.29,1095.43,1145.29,1208,1250.43,1290.14,1321.29,1347.29,1385,1410.71,1435.57,1458.57,1468.14,1479.57,1479.86,-1,-1
AL,CLEBURNE,33.7,85.5,2.71,6.71,12,12,12,12,13,13,13,13.86,16,20.14,22,24.71,33.43,42.29,68,89.43,112.14,126.14,135.43,174.29,200.43,232.57,272.14,315.29,360.43,416.43,455.57,501.43,550.29,582,614.57,653.57,714.29,768.14,809.86,865.14,928.71,986.86,1031.57,1099.14,1156.14,1204.57,1262,1312,1333.14,1348,1370.43,1397,1412.14,1441.14,1448.43,-1,-1
AL,COFFEE,31.66,86.17,5.57,23.43,55.71,89.43,121.57,145.57,165,196.43,230.86,246.71,277.86,312.43,341.86,376.29,427.86,524.57,627.86,717.57,790.86,858.14,965.29,1059.43,1129.86,1209,1262.86,1338.29,1437,1520.43,1616,1752.43,1862,1964.14,2134.86,2288.29,2449.29,2631.14,2879.29,3149.86,3395,3672,4072,4374,4602.43,4862.14,5060.14,5141.43,5200.14,5240,5265.14,5299.29,5342.71,5373,-1,-1,-1
AL,COLBERT,34.75,87.96,2,5.57,8.71,14.29,23,36,61.43,86.43,128.14,175.43,207,253.71,298.86,348.86,401.57,510,710,880.14,1063.14,1192,1286.43,1364.14,1439.86,1501.86,1541.86,1591.71,1652.86,1720.29,1799.43,1880,2002,2202.29,2440.86,2690.43,2907.43,3150.43,3491.29,3784,4077,4404.57,4717.71,5018.71,5282.29,5492.71,5715.14,5854.29,5920.71,5960.29,5994,6006.57,6045.57,6118.43,6154.71,-1,-1
AL,CONECUH,31.43,86.95,1.57,4,8.57,9,9,12.43,18.14,25.29,38.57,47.43,86.71,133.43,165.29,202.43,233.43,281,331.14,376.14,408.14,429.29,455.14,482.71,495.14,508.71,521.29,534.71,539.29,545.43,552.57,560.14,575.14,601.14,638,667.71,686.71,736.71,774.71,801.86,824,855.43,899.43,937,972.43,1003.71,1029.29,1049.57,1062.86,1066.14,1071,1076.43,1082.86,1085.86,-1,-1,-1
AL,COOSA,33.06,86.05,3,7.29,15,22.14,29.57,30,31.86,33.71,33.43,38.71,40.14,45,49.71,54.71,58.43,65.71,72.43,87.57,98.14,116,122.29,128.14,134.14,141.71,150.43,163,171.14,177.86,187.14,195.29,205.71,223.29,236.43,266.43,308.57,352,396.14,432.57,457.14,483,530.43,579.57,604.57,638.71,683.43,750.86,836.14,858.14,888.14,903.43,923.86,943.43,-1,-1,-1
AL,COVINGTON,31.4,86.48,0.29,2.57,6.86,15.57,25.71,34.86,46.14,54.57,59.14,70.71,84.29,97.14,179.71,249.43,319.14,387,476,607.43,730.86,827.29,891.57,954.29,1038.71,1114.86,1198.43,1265.14,1331.29,1413.57,1494.71,1579.57,1667.14,1761.14,1902.14,1967.71,2056.14,2150.86,2256.71,2413.57,2580.29,2746.43,2850.57,3014.14,3204.14,3306.57,3450,3630.71,3772.86,3855.14,3924.29,3974.29,4001.71,4019.14,4030.14,-1,-1
AL,CRENSHAW,31.58,86.25,0.43,1.14,2,4.14,7.43,16.43,29.14,47.71,53.43,66.71,80.71,98.43,115.57,121.57,127.14,129.71,145.57,203.29,263.71,318.57,361.71,401.57,438.86,475,491.86,512.29,528.86,543.43,553.29,573,597.14,612.14,630.86,658.71,686.43,706.29,727.86,757.57,801.71,874,937.43,1048,1155.29,1211.57,1269.29,1328.29,1372.57,1409.43,1433.57,1457,1477.57,1489.57,1493.29,-1,-1
AL,CULLMAN,34.26,86.61,2.14,7.86,19.71,37.29,44.86,51.43,58.29,65.14,69.86,81.14,142.43,201.14,276.14,321.14,396.86,477.71,658.57,837.86,1014.57,1200.14,1313.57,1396.29,1520.71,1639.43,1709.86,1773.86,1852.29,1910.14,1969.14,2084.43,2263.14,2521.29,2866.71,3264.29,3762.57,4158.57,4554.71,5163.29,5776.86,6380.14,6841.14,7334.14,7752.14,8056.57,8324.43,8573.86,8740.57,8799,8842.43,8917.71,9015.86,9161.29,9299.57,-1,-1
AL,DALE,31.59,85.71,0.29,3.29,10.14,19.57,25,32.43,47,64,87.57,118.71,138.29,180.29,207.57,241,306.86,411.57,539.71,702.43,797.86,862,911.43,1012.86,1102.86,1171.71,1256.14,1333,1396.71,1504.57,1555.14,1623.43,1771,1935.57,2056.86,2186.71,2270.86,2372,2553.14,2795.71,3039.43,3219.86,3465,3758.14,3982.71,4138.57,4309.14,4419,4526.43,4600.43,4646,4687.43,4712.86,4730.14,-1,-1,-1
AL,DALLAS,32.41,87.03,0.57,2.43,7.43,15.57,26,35.14,63.14,116,155.57,210.57,275.57,344.29,500.86,653.71,787.43,908.71,1035,1169.57,1265.57,1361,1429.43,1484.29,1548.86,1623.43,1677.43,1721.29,1751.43,1793.29,1809.29,1833.29,1851.57,1874.29,1919.43,1996.71,2079.14,2210.57,2292.43,2405,2508.14,2617.71,2713.14,2853.86,2938.71,3047.71,3143.29,3227.86,3267,3293.29,3356.71,3408.14,3430.71,3472,3504.14,-1,-1
AL,DEKALB,34.26,85.86,0.71,5.71,14.71,28.71,51.29,73.14,102,166.86,199.86,231.57,255.71,283.57,346,445.14,598.71,783.57,1092,1361.86,1560.43,1752.71,1898.29,1992.86,2086.86,2166.71,2234,2290.57,2374.14,2453.71,2660.14,2911.71,3215.29,3487.43,3736,3969.43,4309,4697.14,5007,5474,5993.29,6524.43,6805.71,7112.71,7476.14,7735.14,7960.86,8164.43,8293.71,8365.43,8416.57,8470.43,8525.71,8638.43,8677.57,-1,-1
AL,ELMORE,32.49,86.33,3.29,12.57,20,35.86,63.43,78.43,103.29,143.86,193.86,265.71,352.71,422.43,538.14,672.86,791.29,928,1075.86,1270.14,1486.86,1641.57,1800.14,1903.57,2027,2178.14,2314.43,2428.29,2540,2682.86,2820.14,2953.43,3079.71,3209.57,3318,3452.57,3652.57,3906.71,4122.71,4496,4964.43,5521.29,6041.43,6714.29,7385.29,7826.14,8211.14,8595.57,8884.43,9096.43,9248.29,9381.86,9523.43,9672.86,9827.43,-1,-1
AL,ESCAMBIA,31.11,87.07,0.14,1.29,3.86,10.43,17.29,26.29,31.71,37.57,39,46.43,70.71,89.43,113.29,169.43,260.71,407,538.57,704.71,920,1076.14,1212,1268.29,1349.14,1424.71,1478.29,1533.43,1574.29,1617.57,1659.86,1687.86,1711.71,1743.14,1786.29,1839,1896.29,1960.71,2028.43,2160.57,2296.86,2444.86,2594.29,2794,3033.57,3225.57,3416.71,3561.14,3659,3714.71,3756.43,3781.86,3800.71,3825,3845.43,-1,-1
AL,ETOWAH,34.01,86.01,1.71,10,44.57,80.86,108.29,131.57,152.43,190.71,214.43,239,262.29,284.29,343.29,448.57,619.71,816.71,1114.57,1432.29,1768,2028.43,2246.86,2429.14,2660,2826.43,3096.57,3233.43,3385.57,3561.57,3707.14,3841.86,4077.43,4347.43,4633.29,4990.86,5487.57,6003.43,6624.29,7458.43,8218.43,9190.43,9837.43,10514.71,11288.71,11820.43,12223.14,12597.43,12842.86,12980.71,13097.43,13270.14,13440.71,13546.57,13613.71,-1,-1
AL,FAYETTE,33.7,87.68,0.43,1,3.14,3.86,4.86,6,7.57,9.14,11.43,15.86,20.71,41.57,60,68.14,72.57,88.57,121.14,146.43,178.43,221.29,258.86,288.29,313.86,347.43,390.57,422.29,460,481.86,506,541.43,578.29,609.86,664.71,735.71,830,923.29,1054,1168.57,1297.71,1388.14,1463.29,1571.86,1683.43,1787.71,1854.71,1916.29,1945.86,1984.29,2004.14,2026.57,2036.71,2049.29,-1,-1,-1
AL,FRANKLIN,34.32,87.92,0.14,2.57,4.86,8.29,16.57,31.29,84.71,198.71,305.43,420.71,529.14,600.43,681.14,768.14,820.57,878.57,930.43,999.71,1071.86,1166.29,1267.29,1340.43,1433.71,1526,1603,1664.57,1726.71,1766.29,1820,1877.14,1948.86,2033.57,2119.43,2228.14,2305.29,2398.71,2512,2647.29,2819.57,2973.57,3117,3283,3459.14,3630.29,3726.86,3823.29,3887.86,3938.43,3953.29,3982.57,4001.86,4056.14,4175.86,4182.71,-1
AL,GENEVA,31.17,85.79,1.29,4.71,8.29,10.86,15.86,23.86,36.86,43.14,46,47.43,53,65.29,85.57,106,155.86,201.43,250.71,284.43,316.57,399.57,443,476.14,524.14,584.57,645.86,749.86,800.29,840.43,925.57,989,1043.86,1117.29,1186.43,1255.29,1342.57,1430.29,1525.14,1631,1776.43,1931.14,2039.57,2157.43,2278.71,2327.29,2356.43,2380.29,2399.57,2409,2423.14,2432.71,-1,-1,-1,-1,-1
AL,GREENE,32.75,88.02,1,4.29,12.43,22.71,39.86,52.14,66.14,76.71,87.86,92.29,95.86,111.29,143.14,159.43,174.86,191,208.71,227.57,240.43,250.86,259.57,270.86,279.71,287.86,292.29,298,302.43,306,317.29,328.57,340,347.29,355,366.71,388,418.43,449.57,514.29,566.29,611.86,666.57,714.43,748.71,768.86,789.86,816.14,838.71,857.86,870.43,885.29,888.43,893.29,900.86,-1,-1
AL,HALE,32.87,87.73,1,5.57,17.43,32.29,43.29,57.57,73.29,98.71,138.43,180.14,213.86,243.57,268.14,292,326,373.14,407.14,439,470.29,502,522.86,541.86,562,578.57,600.86,619.86,649.71,676,711.29,745.14,776.14,805.86,836.43,884.14,934.14,991.14,1061.57,1170.14,1311.86,1416.29,1542.57,1694.57,1782.86,1882.86,1970.57,2005.43,2029.71,2076.14,2109.29,2129,2137.29,2151.29,-1,-1,-1
AL,HENRY,31.56,85.25,1,7.43,15.29,20.86,24,27.29,35,48.29,71.57,83,95.43,111,126.43,131.57,145.14,173.14,210,242.71,264.29,284.57,303.71,352.86,396,419.86,454.86,489.86,528,581.71,614.57,659,732.57,765.71,799.57,826,851.29,901.71,957.57,1040.57,1137.86,1241.14,1375,1491.29,1572.86,1637.43,1720.43,1768.14,1795.71,1819.86,1831.71,1839.71,1851.43,1862.43,-1,-1,-1
AL,HOUSTON,31.23,85.4,1.57,8.43,25.14,51,71.57,83.29,97.71,114.43,143,179.57,228.86,265.57,329.57,373.86,447.29,535.14,675,931.43,1184.71,1371.57,1489.29,1609,1902.29,2110,2297.57,2544.43,2747.71,2943.57,3390.86,3525.71,3651.86,4201,4360.43,4561.71,4824.71,5118.57,5423.71,5788,6189.71,6677.14,7079.57,7711.57,8282.14,8701.43,9145.14,9533.71,9766.29,9929.86,10024.71,10104.14,10154.29,10225.43,10266.86,-1,-1
AL,JACKSON,34.94,85.71,0.71,6,14.71,25.29,37.43,45.14,50.43,59.14,62.86,70.43,80.29,94.29,123.86,153.86,206.29,287.57,441,565.86,657.86,820.71,1020.14,1159,1248.71,1309,1368.86,1417.29,1504.86,1579.86,1681.29,1813.43,1977.43,2160.14,2330.14,2480.71,2697.71,2921,3276.43,3879.14,4344.57,4670.86,4912.71,5251.43,5587,5795.29,6008.29,6228,6358.14,6409.86,6438.43,6497,6552.71,6611.14,6700.57,-1,-1
AL,JEFFERSON,33.59,86.95,12.29,184.14,360,546.29,652.86,789.29,923.43,1084,1262,1512.29,1753.86,1986,2365.71,2838,3537.29,4836.57,6296,8164.29,9916.29,11382.43,12933.86,14021,14840.57,15873.29,17033.43,17884.14,18768.71,19544.29,20412.86,21169.57,22031.29,22999.43,24103.43,25387.57,27203.71,29568.29,32040.43,35302.14,39420.71,44060.29,48727.71,52820.14,57477.86,61191.86,63901.71,66189.57,68049.86,69217.71,69992,70736.57,71748.29,72637,73903,74379,-1
AL,LAMAR,33.93,88.02,0.86,1.29,5.71,7.43,9,10.43,12.57,13.71,16.14,21.29,27.14,31.86,50.57,60.14,72.57,82.43,101.14,148,183.14,213.71,240.43,263.14,281.57,295.29,305.29,327.71,358.14,383.86,404.43,429.86,465.29,514.86,540,569.14,594.57,649.71,712.71,792.29,892.86,984.29,1040.14,1100.29,1157.43,1189.71,1220.14,1256,1274,1285.14,1311.14,1334.14,1345.43,1365.57,1377,-1,-1
AL,LAUDERDALE,34.91,87.27,3.14,12.29,17,21.43,24,30.71,64,96.14,114.71,135.71,165.57,190.29,249.71,307,400.57,502.29,615.43,773.14,921.14,1079.71,1193.43,1269.14,1363,1442.29,1510.57,1568.86,1653.29,1736.57,1833.43,1932.71,2069.86,2309,2694.71,2989.14,3376.29,3821.71,4214,4692.43,5138.14,5680.29,6206.43,6728.29,7236.14,7596.43,7940.71,8201.14,8381.43,8473.71,8538.29,8602.14,8636.57,8853.29,9036.14,-1,-1
AL,LAWRENCE,34.66,87.31,0.57,3,6.57,8,10,12,15.14,24.86,32.86,43.29,50.43,56.43,66.14,79.57,98.29,112.86,145.86,197.14,257.71,319,361.43,385.71,424.71,473.86,521.86,560.57,593.43,628.43,666.14,729,795.14,862.43,943.57,1009.57,1093,1224,1317.71,1447.29,1602.14,1796,1967,2139.14,2336.29,2445.14,2560.14,2657.57,2730.29,2777,2801.14,2834.57,2861.86,2891,2910.14,-1,-1
AL,LEE,32.65,85.37,6.43,57.43,105.43,226.14,303.29,355.71,396.57,422,446.57,488.14,545,592.29,681.86,841,1076,1355.57,1614.14,2015.57,2331.14,2588.71,2815,3004,3259.29,4294.57,5038.29,5414.14,5669.86,5892.57,6102.14,6280.29,6407.43,6525,6692,6871.14,7152.86,7461.86,7760.71,8118.43,8649.14,9241.57,9819.14,10488.29,11428.43,12334.29,13095.29,13729.57,14251.43,14556,14770.29,14938.14,15063,15147.71,15262.14,15374.29,-1
AL,LIMESTONE,34.78,86.95,10.29,26.14,34.43,38.57,40.14,43.86,52.43,61.29,69.71,89.14,114,170.43,252.43,319.14,444.14,573.29,761.29,961.14,1127.29,1285.14,1424,1530,1626.71,1725.14,1801.86,1928.14,2060.57,2185.57,2401.57,2603.14,2773.14,2984.57,3238.57,3515.43,3840.57,4173.57,4546.71,5066.29,5682.57,6329.14,6806.14,7338.14,7837.14,8201.71,8539.29,8829.57,9078.14,9224.29,9327.71,9410.86,9466.71,9653.71,9697.71,-1,-1
AL,LOWNDES,31.98,86.57,0.71,3,12.43,25.71,35.57,65.71,90.43,121.43,170.29,230,273.86,348,413.57,439.14,467,486.14,510.71,537.14,557.71,579.71,589.86,601.29,612.71,626.86,631.14,644.71,653.29,660.43,674.86,691.86,706.57,723.14,740.71,755.43,776,795.57,827.71,853.29,886.71,915.14,949.71,1029.43,1088.29,1138.29,1204.57,1260.57,1283.71,1297.29,1306.29,1326.71,1340.29,1354.29,1358,-1,-1
AL,MACON,32.29,85.73,2,6.43,18.43,26.43,34.86,41.14,50.71,56.14,65.14,86.71,105.29,131.57,151.71,170.86,204.14,234.86,270.86,301.29,324.71,352.71,375.14,405.86,439,456.71,465.71,478.57,483.57,497.43,517.71,528.71,540,576.86,619.29,664.29,711.86,756.14,803.14,860.57,922.43,982.57,1039.86,1107.43,1171.29,1241.71,1298.86,1348.86,1377.29,1401.86,1443.71,1482,1500,1523,-1,-1,-1
AL,MADISON,34.7,86.46,11,78.43,136.86,185.71,202.86,212.57,233.14,249,276.71,297.71,343.29,400.29,536.43,715,962,1429.29,2383.14,3458,4293,5003.43,5474.14,5814.86,6057.43,6423.71,6818,7152,7555.71,7906.57,8217.29,8540.29,8932.71,9327.29,9763.86,10355.43,11274.57,12252.43,13417.29,15065,16986.29,19267.71,21227,23254.29,25388.14,26993.71,28250,29604.86,30711.86,31486.71,31955.57,32396.71,32699.86,32950.29,33257.71,-1,-1
AL,MARENGO,32.5,87.83,0.14,4,12,21.43,31.29,43.14,63,84.71,109.29,140.14,170.14,188.29,218.29,243,276.14,313.86,365.14,427.29,487.57,526.57,570,601,625.71,644.43,670,690.14,701.43,724.57,746.86,892.43,967.29,1023,1067.14,1099.14,1137.29,1174.29,1233.43,1323.57,1493.14,1637.43,1758.14,1841.14,1943.86,2003.71,2107.14,2187.86,2225.29,2267,2358.57,2364,2450.43,2473.71,2486.86,-1,-1
AL,MARION,34.26,87.71,0.29,7.71,16.29,43.43,61.29,71.29,81.14,95,101.86,110.86,121.86,129.29,139.43,169,193.57,223.43,283.86,407,483.57,554.86,603,646.86,710.29,777.43,820.86,880.57,931,963.71,991.57,1018.43,1036.86,1077.14,1123.14,1201.86,1263.43,1327.43,1401.86,1522.14,1664.86,1831.14,1983,2126.86,2295.57,2428.57,2525.14,2601,2655.86,2701.57,2735.29,2816.29,2890.57,2965,3041.57,3049.14,-1
AL,MARSHALL,34.32,86.5,4.29,21,81.57,142.86,282.14,347.29,534.29,616.43,647.14,686,731.43,849.71,1056.57,1369.71,1687,1961.57,2318,2654.86,2924.43,3197.43,3329.57,3496,3602.29,3656.43,3716.57,3818.57,3940,4017.86,4125.29,4232.43,4375,4534.86,4801.71,5222.43,5719.29,6268.71,7007.29,7697.57,8287.43,8814.86,9257.71,9752.29,10132.57,10408.57,10718.29,10948.71,11081.71,11159.71,11246.14,11454.57,11573.43,11797.43,11835,-1,-1
AL,MOBILE,30.92,88.02,19.57,81.14,313.29,583.29,802.86,1071.86,1353.29,1595.57,1868,2126.86,2341.57,2599.14,2869.57,3236.71,3832.86,4504.71,5563.43,6725,8038.14,9540.43,10855.14,11438.86,11959.29,12410.43,12704.29,12961.14,13280,13603.86,13843.86,14118.86,15434.71,17116.43,17574.57,18201.43,18942.86,19630.71,20437.71,21678.14,22861,24269.57,25896.57,27698.29,29539.86,30994.14,32464.29,33645.57,34540.14,35150.57,35842.29,36288,36581.71,37099.14,37385.43,-1,-1
AL,MONROE,31.73,87.2,1,4.86,6.43,8.29,11.14,13.29,15.43,19.57,28.71,40,59.14,124.71,161.71,187.71,234,269,332.71,393.43,437,475.86,498.14,518.43,542.86,553.29,569,575.43,588,595.71,609,625.71,648.57,668.71,693.57,727.71,767.29,801,861.86,923.57,1029.29,1123.71,1247.29,1382.71,1458.43,1523.86,1573.71,1625,1642.57,1652.71,1661.57,1667.71,1679.43,1693.43,-1,-1,-1
AL,MONTGOMERY,32.3,85.99,0.57,18,54,101.71,204.57,271.43,362.57,543.86,775.86,1093.71,1583,1963.43,2579.71,3140.57,3558,4013.57,4452.43,4957.86,5580.43,6129.43,6680.14,7172.57,7510.43,7829.71,8136.57,8356.57,8600.43,8799.86,8950,9164.29,9515,10025.29,10568.86,11002.29,11443.43,11890,12289.43,12825.29,13546.14,14494.14,15363,16218.86,17670.86,18697.29,19664.57,20632.43,21309.57,21839,22197,22491,22752.57,22982.29,23372.14,23571.14,-1
AL,MORGAN,34.57,86.98,8.71,22.29,34.71,44.14,53.57,69.43,84.43,103.71,138.86,228.14,324.86,495.43,701.14,853.57,1028.29,1224.43,1545.86,1850,2112.86,2341.71,2493.43,2635.86,2805.71,2952.57,3038.29,3138.14,3258.86,3377.43,3566.86,3805,4043.43,4343,4711.43,5159.86,5775.29,6454.57,7239.71,8110.14,8967.43,9893.14,10628.29,11360.29,12013,12453.71,12850.57,13134.71,13329.29,13444.57,13589,13744.43,13841.71,14039.43,14095.29,-1,-1
AL,PERRY,32.63,87.31,3,8.29,9,11.14,17.86,19.71,27.86,37.14,44.71,63,84.14,107.43,160.29,219.29,300.71,382.71,437,465.86,483,499.86,514.14,523.43,532,536.43,540.43,543.14,558.71,576.86,586.14,601.14,614.14,633.71,656.57,683,700.71,732.14,774.29,819.29,871.14,914,956.14,994,1016.86,1043.86,1039.43,1045.14,1053.57,1061.71,1070.86,1076.43,1077.29,-1,-1,-1,-1
AL,PICKENS,33.12,88.15,1.29,9.29,19,32.43,45.14,51.14,62.71,74.43,88,106.57,122,135.86,154.71,185.43,222.71,263,295.86,326,359.14,394.86,437,497.14,546.29,573.14,598.86,626,655.29,677,704.43,770.29,833.57,901.43,978,1051,1118.71,1220.43,1296.29,1380.29,1520.43,1643.86,1746.14,1852.86,1951.71,1987.86,2057.43,2133.86,2169.14,2208.86,2240.43,2255.43,2275.57,2315.29,2321.14,-1,-1
AL,PIKE,31.81,85.83,2.71,9.43,17.86,31.14,57,70.57,88.43,104.14,127.71,187.29,227.57,297.86,353.14,386.86,422.43,472,528.43,587,649.14,726.43,779,848,934.14,1022,1091,1140.86,1191.43,1228.71,1258.43,1292.43,1326.86,1370.14,1417,1474.29,1529.71,1582.29,1645.43,1717.14,1796.29,1885.71,2014,2243.86,2449.29,2595,2718.57,2796.29,2867,2904,2929.86,2932,2949.43,2990.57,3021.71,-1,-1
AL,RANDOLPH,33.46,85.33,2,11.14,33.57,53.86,60.43,75.29,106.71,119.43,123.71,127.71,133.86,141.43,145,160.57,208.86,268,323.86,371.71,397.29,412,429.57,459.29,509.29,541,568.29,609.14,654,697.71,739.43,787.43,827,862.86,891.43,944.57,990.71,1038.43,1087.71,1126.71,1175.29,1216,1275,1343.57,1398.57,1462.43,1517.86,1555.71,1577.86,1607.29,1636.43,1653,1690.86,1730.71,-1,-1,-1
AL,RUSSELL,32.13,85.14,0.14,1.14,8.29,24.71,43.29,53.71,61.43,78.57,102.43,131.43,170.43,206.29,287.14,363,441.71,554.14,706.86,916.43,1078.14,1234.86,1390.14,1453,1536.57,1613.86,1659.29,1679.29,1714.29,1763.86,1816.71,1852.14,1896,1947.57,2002.14,2021.86,2068.29,2162.86,2237.29,2361.29,2467.43,2586.86,2697,2864.29,3062.86,3297.29,3560,3737.57,3856.29,3936.43,3993.43,4042.57,4083.43,4130.43,4187.14,-1,-1
AL,SHELBY,33.22,86.82,3.14,61.57,116.14,190.14,252.14,293.71,322.57,354.14,391.57,423.43,497,555.14,620.43,749.71,928.14,1200.71,1590.43,2108.57,2625.14,3042.57,3396.14,3657.29,3874.71,4297.71,4807.86,5181.71,5566.71,5908.29,6261.14,6576.43,6901.86,7270.57,7666,8096.57,8771.29,9514.86,10241,11259.57,12383.71,13538.14,14736.14,15841.86,17205,18260.71,19085,19954.57,20680,21160.43,21510.14,21849.14,22194.86,22462.57,22756.57,22924.86,-1
AL,ST. CLAIR,33.59,86.49,5.43,18,33.86,47.57,60,70,77.57,86.43,94.71,110.29,138.14,157.86,189.43,228.86,317.14,455.71,688.57,925.57,1149,1351.43,1479.71,1586.57,1743.14,1892.57,2018.14,2166.29,2271.86,2379.71,2512.43,2652.29,2844.29,3074.43,3341.57,3583.29,3821,4080.29,4502.86,4984.43,5482.43,6000.14,6433.14,6937,7355.14,7659.43,7979.86,8279.71,8507,8649.29,8766,8943.43,9093.71,9236.57,9298.14,-1,-1
AL,ST. CLAIR,33.59,86.36,2.71,13.86,29.86,43.43,57,67.14,75.57,83.86,91.86,104.86,130.29,150.71,180.29,215.29,283.86,413.71,612,862.29,1082.14,1298.57,1456.71,1547.29,1696.57,1851.71,1982.86,2127.43,2240.57,2346.71,2474,2608,2790.57,2999,3267.29,3510,3757.57,4004.29,4353.57,4853.14,5332,5858,6301.57,6803.29,7249.43,7572.43,7892.57,8192.29,8459,8612.57,8733.86,8875,9070.86,9194.57,9285,-1,-1
AL,SUMTER,32.72,88.31,0.29,7.43,20,35.57,51.14,71.86,98,125.71,182.71,219.29,240.29,259.14,268.14,274.29,283.57,292.57,316.29,338.71,362.71,366.86,379.86,394,402.29,409.71,413.29,417.86,436,437.29,451.86,463.14,471.57,486,503,526.43,550.86,580,608.71,655.43,733,813.71,858.14,886.43,890.29,902.43,927.71,950.86,965.86,977,983.71,1004.57,1014.43,1023,1022.86,-1,-1
AL,TALLADEGA,33.33,86.18,3.14,11,27.86,41.14,52.57,61,69.43,75.71,84.29,101.43,126.43,151.71,177.29,209.71,288.43,366.71,539.57,736.71,945,1176.29,1358.29,1497,1663.14,1809.57,1902.14,2012.86,2127.43,2205.43,2320.71,2477.43,2612.57,2753.29,2886.43,3053.29,3258.29,3457.29,3795,4174.57,4529.14,4840.14,5145.86,5594.57,6021.43,6340,6683.43,7021.57,7218,7349.57,7470,7597.29,7683.71,7843.57,7920.86,-1,-1
AL,TALLAPOOSA,32.92,85.93,2.29,12.71,36.86,122.86,221.86,278,302.71,333,371.71,406.57,433.43,453.71,487.14,526.86,566.43,612.86,662.29,742,812.71,876.57,944.43,982.14,1015.57,1060.14,1091,1118.43,1140.29,1170.43,1202.29,1232.14,1286.71,1346.43,1422.29,1508.29,1628,1717,1852.43,1978.43,2089.29,2213.43,2332,2458.57,2575.14,2699.43,3201.14,3343.29,3408.71,3449,3539.57,3602.29,3650.14,3775.14,3836.43,-1,-1
AL,TUSCALOOSA,33.28,87.12,4.86,25,60,109.86,149.43,189.86,225.71,279.57,361,528.57,769,929.14,1288.14,1589.71,1900.14,2287,2709.29,3151.86,3584.29,3974.57,4325.43,4612.71,5056.71,5803.43,6248.43,6728.57,7230.29,8566.71,9189.43,9500.57,9884.14,10348.43,10767.71,11182,11775.57,12464.71,13192.57,14195.86,15476.43,16697.57,17835.71,19019.57,20113.14,20729.57,21500,22400.86,23049.86,23451.71,23786.57,24129.86,24431.86,24584.86,24820.71,-1,-1
AL,WALKER,33.6,87.14,0.43,20.71,42.71,74.43,84.86,90.71,96.43,104,121,184.43,323,422.43,532.43,664.29,775.14,915.29,1066,1209.14,1345.29,1461.57,1539.71,1628.71,1758.86,1881.71,1993.86,2114.29,2197.43,2294,2396.71,2503.57,2620.14,2750.43,2909.71,3094.57,3237.86,3422,3637,3894.71,4318.71,4623.86,4962.57,5273.86,5610.86,5849.14,5999,6119.43,6226.14,6332.71,6418.43,6503.86,6584.86,6710.14,7002.14,7033.29,-1
AL,WASHINGTON,31.15,88.01,1.29,3.71,8.43,12.86,17.71,32.29,43.14,56.86,62,65.71,74.43,84.71,91.57,97.71,103.71,126.29,173.57,241,294.57,331.57,453.14,487.29,508.14,523.86,531.29,541.57,552,563.57,587.29,610.14,656.86,755.43,788.14,840.71,883,903.86,932.57,983,1049.57,1127.43,1178.86,1265.43,1342.86,1391.43,1445.57,1481.14,1508.43,1534.71,1557.86,1566.86,1575.43,1622.43,1634.86,-1,-1
AL,WILCOX,31.89,87.46,1,4.57,15.86,36.43,50.43,62.86,74.14,88,103.86,129.86,156.43,189.14,233.43,258.71,283.43,298.43,329.71,369,401.57,427,456.43,480.14,504.43,517.43,523.57,529.43,530.71,533.43,543.43,553.71,560.29,570.71,581.71,597,613.14,629.14,650.57,694,793.57,835,871.14,919.57,995.29,1050.29,1102.71,1151.86,1178.43,1195.71,1208,1225,1237.71,1246.71,1246.86,-1,-1
AL,WINSTON,34.19,87.17,1.14,2.57,3.57,8,10.29,14.86,19.14,30.14,55.57,84.29,93.29,111.57,164.14,209.43,248.29,293.57,337.71,379.29,426.14,459.57,481.43,514.57,557.43,601.71,648.43,692.43,735,758.57,804.86,872.43,918.57,959,1018.14,1104.86,1196.29,1317.71,1451,1609.43,1709.43,1857.86,1987.29,2132.57,2238.43,2320.29,2372.14,2393.57,2421,2434.86,2460.57,2569.29,2610.71,2695.86,2709.43,-1,-1
AR,ARKANSAS,34.4,91.41,1.29,1.29,2,2,2,2.29,2,2,3,6.57,7,11.29,21.14,29.57,43,74.14,138,175.57,203.86,227.71,251.71,268.14,284.57,299.43,322.71,366,420.14,488.86,569.86,616.43,675.14,738.14,791.71,859.29,930.86,979.57,1048.57,1119.71,1206.29,1280.14,1376.71,1480.43,1597.57,1708.14,1804.14,1895.43,1930.71,1953.86,1994.29,2005.43,2013.43,2038.43,-1,-1,-1
AR,ASHLEY,33.12,91.96,0.43,3.86,9.71,11.43,13,15.14,17.43,18.14,19,19.14,28.86,40,52.57,66,80,97.71,126.29,169.29,234.86,313.43,350.43,374.71,386.86,389.57,398.43,418.14,431.29,447.57,469.86,496.29,526.86,564.29,609.71,669.71,740.43,844,936.43,1040.71,1140,1221.57,1294.43,1385.57,1472,1566.43,1631.71,1686.29,1727.57,1742.86,1795.14,1844.71,1861.43,1876.43,1892.29,-1,-1
AR,BAXTER,36.31,92.09,2,3.57,4,4.86,5,5,5.14,6,7.14,11.43,13.14,14,14.71,20,24.71,31,43.71,55.86,63.57,72.71,87.57,115.29,137.43,156.43,212.29,284.29,352.86,408.14,473.29,557.86,658.43,785,946.29,1110.57,1291.86,1418,1560.86,1690.29,1853.43,1992.71,2201.86,2365.43,2474.14,2558.57,2646,2727.57,2761.14,2789.29,2875.71,2923,2987.14,3032.14,-1,-1,-1
AR,BENTON,36.39,94.07,0.57,29,41.57,50.57,62.57,82.29,105.71,118.43,143.43,242.57,514.71,895.71,1346.29,1890.29,2501.43,2943.14,3388.86,3772.14,4161.14,4489.57,4731.86,4895.43,5056.29,5282.14,5579.71,5803,6157.14,6525.57,6843.29,7151.86,7541.71,7986.71,8509.86,9328.57,10223.71,11001.14,11906.86,13047.29,14126.86,15437.57,16798.43,18457.86,20795.57,22832.14,23979.43,24978,25841.43,26376.14,26694.86,27151,27467.43,27719.14,27914.57,28061.86,-1
AR,BOONE,36.24,93.11,1,2.57,3.14,3,4,4.57,4,4,5.14,6,6.71,7.86,10.29,18.29,27.29,39.14,67.57,93.29,143.57,193.86,220.43,245.14,302.57,384.14,452.86,581.29,683.14,768.14,845.57,916.86,986.14,1062.43,1149.43,1295.57,1484.43,1698.14,1902.57,2089.57,2261.29,2420,2566.14,2753.86,2931,3092.14,3268.14,3417.43,3523.71,3570.43,3615.86,3661.29,3683.71,3706.57,3726.57,-1,-1
AR,BRADLEY,33.57,92.26,2.43,4,4,6.86,7,9.29,11,11.57,14.86,17.43,22.29,32,34.71,38.29,49,58,82.57,102,123.57,157.86,202.71,229,267.86,294.86,312.86,324.86,337.57,342.71,345.43,350.14,360.86,370.57,376.14,386,404,450,521.14,610.29,718.14,838.57,912.86,1005.71,1102.14,1171.71,1214.57,1259,1300.57,1314.86,1319,1321.43,1325.57,1333,1344,-1,-1
AR,CALHOUN,33.53,92.46,0.57,2,4.14,7.43,10.86,13.71,16.71,20.43,23,23.29,25.57,31,34.43,36,37.29,39.86,45.29,52.43,65.71,91.14,115.29,137.14,154.14,168.14,183.86,207.57,228.57,253.14,276,301.29,330.43,357.57,376.57,386.14,389.57,400,403,406,408.57,-1,-1,-1,-1,-1,-1,-1,-1,-1,-1,-1,-1,-1,-1,-1,-1
AR,CARROLL,36.29,93.29,0.57,1.57,2,2.43,4.86,6,6,7.14,19.29,29.29,50,97.57,144.29,173.86,205.57,242.71,295.43,329.29,345.71,373.43,408,444.14,475,517.71,579,633.71,706.86,792.57,893.14,956.29,1009.57,1067.14,1128.86,1216.43,1361.43,1500.86,1667,1821.29,1957.71,2055,2190.57,2335.86,2435,2518,2617.29,2682.71,2701.86,2713,2719.14,2729.86,2736.57,2742,-1,-1,-1
AR,CHICOT,33.52,91.43,0.71,2.14,4.43,6.86,7.43,9,9.71,10,11.71,14.43,18,35.14,65.43,106,149.29,198.57,239,279.14,456.29,667.86,812.29,931.43,949.14,965.29,972,986.71,1001.86,1009.71,1015.86,1024.14,1040.43,1052.86,1059.71,1076,1114.86,1168.29,1224,1286.29,1334.43,1374.57,1407.86,1452.29,1489.29,1520,1546.14,1567.86,1577.29,1582.43,1585,1588.86,1597.14,1604.43,1608.14,-1,-1
AR,CLARK,33.85,93.19,7.43,23.29,27,26.71,27.14,28.29,31.71,33.86,35.14,37,39.57,41.57,48,52.43,56.43,61.57,78,107.29,142.43,164.43,179.71,193.57,214.71,237,266,286.43,318.57,353.14,393.86,433,471.86,499.14,546.29,625.43,699.71,767.43,843.71,966.71,1106.71,1235,1333.86,1448.43,1560.29,1673.43,1773.71,1863.57,1937.29,1977.86,2005.86,2040.86,2058.29,2064.57,2072.43,-1,-1
AR,CLAY,36.41,90.58,0.43,1,1,2,3,3.14,3.43,4,4.29,6.14,17.29,38.71,53.43,67.29,80.86,89.43,102.57,107.43,132.14,145.43,162.14,178,205.57,231.29,261.57,296.43,337.57,378.86,426.86,475.43,514.43,572,677.57,776.86,881.43,1026.14,1123.86,1205.29,1276,1347.29,1419.86,1477.71,1530.86,1570.14,1637.71,1654.43,1664.29,1687.57,1700.57,1705.86,1713.71,-1,-1,-1,-1
AR,CLEBURNE,35.64,92.19,3.57,47.71,64,69.14,70.14,71.57,72.71,72,72,72.86,73.14,74.71,74.57,76.14,81.14,102.29,126.14,147.86,167.57,177.86,192.57,214.43,239,253.86,262.29,282.71,306.14,323.57,349.29,380.86,414.57,446.86,476.14,533.86,579.57,631.57,706,792.71,869.29,990,1105.14,1266.57,1452.43,1574,1665.14,1739.86,1804.86,1849.86,1861.14,1875.43,1892,1908.86,1924.57,1938,-1
AR,CLEVELAND,33.86,92.29,3,4.57,7.57,8,8.14,10.43,11.71,14.43,17,18.29,19,19,20.57,25,26.29,31,39.14,48.43,62.29,82.14,108.71,123.43,132.14,138.14,146.29,169,180.43,186.71,194.14,197.86,213.43,240,268.29,287.57,314.57,347.86,386.71,439.43,487.71,523.14,560.14,604.86,650.57,704,763.57,834.29,896.14,908.14,912.71,925.43,933.43,937,937.57,-1,-1
AR,COLUMBIA,33.09,93.19,0.57,2,3,3.43,5.14,10,13.86,15,17.71,20.14,23,25.29,28.57,53.43,82.57,95.29,113.43,143.29,171,202.57,220.29,249.86,282.29,300.29,320.86,349.57,395.86,485.29,575,622.14,660.57,705.57,765.86,823.43,899.57,1023.86,1125.29,1232.29,1350.57,1440.71,1533,1632.71,1728,1808.57,1876,1963.43,2046.86,2088.71,2118.14,2250.71,2283.14,2293.29,2307,-1,-1
AR,CONWAY,35.4,92.56,0.71,2.29,3.71,4.29,5.71,11.57,13,13.29,14,14,14.14,15.43,22.29,33.86,51,74.86,95.57,113.57,124.29,137.86,153.14,167.86,190.57,206.29,219.14,232.29,249.29,269.29,296,312.57,330.57,345,363.29,414.71,510.14,617.43,687.14,805.86,939.57,1097.57,1249,1445.71,1655,1795,1904.86,1995,2078.29,2120.14,2133.43,2149.71,2161.14,2168.57,2177.14,-1,-1
AR,CRAIGHEAD,35.82,90.68,0.71,5.71,17.71,31.43,42.57,60.57,79.86,94.57,133.57,177.29,215.57,289.57,350.29,387.86,434.71,471,542.43,700.43,921,1099.29,1317.29,1468.57,1647.57,1810.86,2037.57,2310.14,2566.71,2904.86,3210.43,3566,3968,4365.43,4809.14,5395,5925.57,6463,7010.57,7666.14,8312.43,9005.43,9620.57,10224.57,10907.43,11453.29,11844,12120,12408.86,12590.57,12671.29,12783.57,12907.29,12966,13013.86,13055.57,-1
AR,CRAWFORD,35.48,94.22,1.29,3,3.14,4,4,4.29,4.71,9.43,12.57,21.71,36.71,50.29,82.57,129.57,192.86,254.43,326.29,417.14,511.57,599.43,698,804.29,891.71,963.43,1047,1199.86,1352.86,1515,1674.29,1822.71,1965.86,2120.57,2319,2563.29,2815.29,3018.43,3268.57,3587.71,3914.86,4192.57,4521.14,4993,5480.71,5831.14,6126.29,6416,6601.57,6676.71,6745.43,6818.71,6880,6923.14,6958.57,-1,-1
AR,CRITTENDEN,35.14,90.18,6.43,30.43,70.29,119,152.43,181.57,200.71,218,255,314.57,412.57,487.86,552.86,636.57,750.43,799.86,889.86,1005.86,1132.57,1286.86,1409.29,1520,1604.29,1667.43,1758.14,1832,1905.71,1972.43,2030.43,2110.71,2247.86,2423.29,2597.71,2786.86,2973.14,3161.14,3360,3585.14,3821.14,4071.14,4284.71,4539.43,4880.43,5133.86,5288.43,5437.57,5561.14,5615.14,5650.29,5769.43,5798.57,5819.14,5844.57,-1,-1
AR,CROSS,35.4,90.75,0.57,2.57,5.43,6.86,9.14,16.29,25.14,31.43,38.29,45.14,55.29,66,78.71,82.86,86,90.57,102.71,122.57,153.29,174,207.29,229.86,247.14,281.14,326.71,379.14,417.14,448,488.57,513.57,548.71,586.57,627.14,647.14,702.43,798.71,879.29,984.71,1119.43,1251.86,1358.71,1509.43,1626.29,1722.71,1791.14,1831.14,1862.57,1880.14,1893.86,1895.57,1901.71,1910,1914.14,-1,-1
AR,DALLAS,34.07,92.55,0.43,1,1,1,1,1,1,1,1,3,3,4.86,7.14,10,10.71,18.29,28.86,54.71,60.86,66.71,80.71,113.86,132.14,146.57,154.57,160.71,168.29,173.57,177.29,178.43,182.43,194.57,220.57,257.14,293,330.43,374.86,413.29,455.86,485.43,532.57,590.14,635.86,659.57,687.86,705.86,711.86,724.57,742.86,747.57,750.14,755.71,-1,-1,-1
AR,DESHA,33.6,91.2,1.57,2.57,5.29,6.14,11,16,16.14,17.29,18.14,19,19.14,20,24.43,35.14,49.71,69.43,87.57,116.86,135.71,172.57,202.57,213.71,228.29,246,255.43,268.14,285.29,303.86,330.14,353.86,383.86,415.29,442.43,465.57,494.71,537.57,596,693.29,789,878.14,941.14,1002.14,1058,1105.14,1169.29,1235.71,1279.14,1299.71,1317.86,1334.71,1343.43,1350.29,1354,-1,-1
AR,DREW,33.62,91.79,1,2.57,5.29,6,8.86,14.14,17.71,19,19,19,20.29,23,28.57,43.14,67,81.57,99.43,120.14,148.43,177.14,225.43,280.57,297,306.71,323.29,340.57,351.86,359,368.57,384.71,412.43,433.71,454.57,487.86,540,644.14,824,1044,1205.71,1357,1433.86,1547,1648.43,1739.14,1816.43,1884.14,1927,1940.43,1947.71,1949.14,1958.86,1968.43,1976.43,-1,-1
AR,FAULKNER,35.08,92.45,10.14,33.29,49.29,58.14,62.86,73.14,77.43,82,93.43,99.86,103.57,118.14,170.71,289.43,454.14,612.14,791.43,927.71,1088.43,1214.29,1317.43,1402.29,1538.57,1690,1798.86,2025.71,2281,2507.43,2735,2944.43,3145.86,3335.57,3557.57,3791.57,4144.29,4477.14,4860.14,5427.71,6054.86,6665.86,7284.29,8157.71,9014.29,9682.71,10219.57,10735.86,11256.43,11459.86,11590.29,11765.86,11895,12025.29,12100.14,-1,-1
AR,FRANKLIN,35.42,93.72,0.29,1.29,1,1.29,2,2,2,3.14,4,4.71,6.29,10.86,16.57,25.71,30,40.71,70.86,104.71,123.14,139,149.86,160.86,183.29,205.86,236.29,275.43,317.14,385.86,450.71,507.14,562.43,612.43,656,709.29,785.14,859.86,925.57,987.14,1043.86,1119.71,1228.43,1328.29,1417.43,1496.86,1541.14,1576.71,1602,1627.86,1641,1656.43,1664.86,1669.14,-1,-1,-1
AR,FULTON,36.3,91.97,1,1.57,3,3.57,5.71,7,7.29,8.86,9.43,11.71,15.29,17.57,19.86,23.57,28.14,39.86,48.14,57.71,68.57,83.14,98.71,122.29,159.71,197.57,224,273.29,314.57,345,385.86,438.57,501.43,549.86,587.86,640.57,755.14,834.57,912,972.43,997.71,1016.14,1027.29,1047.57,1053.57,1058.43,1077.14,1083.86,1092.14,1097.71,-1,-1,-1,-1,-1,-1,-1
AR,GARLAND,34.5,93.05,1.29,20.71,38.29,71.29,105.86,110.43,116.43,118,126,131.86,135.57,138.86,157,172.71,211.43,269.86,314.29,420.57,606,800.43,964.29,1146.71,1266.29,1380.29,1488.86,1586.43,1710.14,1850.71,1991.71,2079.86,2210.57,2376.43,2579.86,2772.71,3106.57,3391.43,3737.29,4052,4479.57,4903,5336.57,5851.43,6598.86,7349.29,7818.14,8290.86,8830.29,9224.57,9444.86,9641.86,9790,9910.43,9965.43,10009.57,-1
AR,GRANT,34.11,92.3,2.29,3,6.43,10.57,11,12.86,14.29,15.57,16,17,18,21.57,24.14,29.43,41.14,50.57,65.57,93.14,119.71,130.14,141.57,157.86,174.29,195.14,210.43,232.29,253.14,271.86,287.57,320.43,343.71,368.43,393.57,426.57,492.14,569,637.29,706.29,795.86,921.57,1054.14,1151.71,1229.29,1297.71,1350.14,1432.71,1504.14,1534.14,1549.86,1587.43,1605.86,1619.86,1627,-1,-1
AR,GREENE,36.16,90.61,1.43,3.57,4.86,6,9.29,15.43,19.14,23.14,26.29,50,64.57,67.14,73.29,94.43,114.14,127.29,151.14,180,240.14,385.43,487.57,543.57,585.71,634.43,670.29,726.14,799.43,888,972,1113,1266.57,1475.14,1691.29,1955.71,2249.57,2635.57,2991.57,3447.43,3800.86,4087,4329.71,4578.43,4891,5129.71,5332.43,5531.57,5688.14,5747.86,5774.57,5874.14,5930,5959.86,5981.71,-1,-1
AR,HEMPSTEAD,33.66,93.59,0.29,2.29,3.57,4.43,5,6,7,8.14,11.57,15.57,24.43,34.57,42.43,47.14,57.14,73.71,109.43,156,199.86,233.71,260,291.86,324.29,334.14,340,351.43,364.14,395.14,441,490,530.71,575.71,646.43,707,777.86,843,909.71,994.86,1081.43,1168.71,1239,1341.29,1429.43,1530.29,1613.29,1698.29,1759.43,1785.86,1848.71,1933,1941.57,1954.57,1971.29,-1,-1
AR,HOT SPRING,34.33,93.19,1.29,4.86,7.57,8,8.71,17,22,28.14,29.14,31,33.29,36.57,46.71,344.86,515.86,847,1315.14,1375.14,1429.29,1496.43,1586.71,1662.14,1697.43,1731.14,1765,1816.14,1875.14,1930.43,2004.71,2079.14,2151.14,2238.14,2357,2515.86,2692.57,2870.71,2985.14,3097,3262.43,3442.57,3631.14,3828.29,4019.43,4183.86,4335.57,4513.29,4652.14,4703.71,4779.29,4875.86,4918.14,4942.43,4969.86,-1,-1
AR,HOWARD,34.12,94.01,2,4.29,6.43,12.14,13.14,13.14,14,14,15,19,28,37.71,55.14,76,97.14,126.14,163.43,222,289.29,325.43,365.43,385.43,413.14,431.29,442.43,452.71,466.57,495.71,512,534.14,561.86,607.14,662.57,708.43,755.43,797.14,853.29,911.29,994.14,1058.57,1110.43,1177.57,1230.71,1280.86,1337.43,1424,1479,1501.71,1543.29,1600.29,1614,1618.14,1634.29,-1,-1
AR,INDEPENDENCE,35.55,91.46,2.29,3.71,5,6.29,8.29,9.29,11.29,20,26.71,29.14,32.57,36.57,43,47.86,57,63.57,86.57,142.14,277.57,432.71,564.14,641.71,720.14,783.29,843,955,1053.14,1144.43,1250.43,1329.57,1409.29,1470.71,1560,1757.57,1895.43,2009.14,2148.43,2282.29,2408.71,2570.43,2729.71,2965.43,3166,3301.43,3399.14,3507.57,3586.43,3628.14,3651.14,3674.71,3685.43,3697.29,3707.14,-1,-1
AR,IZARD,36.22,91.74,0.57,1.57,2,4.43,8.86,12.14,13.43,14.86,16.43,17,19.43,20,20.86,23.57,25.29,28.57,34.71,44.71,54.43,64.43,80.43,102,112.14,131.57,179.43,247.57,277.14,355,457.43,570.14,665.29,830.57,904.86,955.71,999.71,1037.86,1082.86,1154.86,1241.57,1369.71,1437.14,1481.14,1523.86,1568.43,1614.57,1636.57,1643.71,1641.29,1642.14,1645.86,1650.71,-1,-1,-1,-1
AR,JACKSON,35.56,91.11,0.29,1,1,1,1,1,1,2,5.71,15.14,21.43,26.29,31.14,39.86,44.86,50.71,57.71,93.86,122.71,166.57,181,192.86,233.57,282.43,320.57,414.57,509,604.57,703.71,861.29,1000.14,1220,1491.86,1755,2039,2377,2614.43,2750.43,2834.43,2922.86,2985.14,3024.14,3061.71,3108,3120.71,3129.29,3151.14,3180.14,3192,3196.71,3203.14,-1,-1,-1,-1
AR,JEFFERSON,34.21,92.01,23,48.43,85.43,110.43,140.86,171,217,322,499.43,513.29,537.14,592.43,638.71,668.14,719.14,809.86,940,1100.71,1271.43,1451.14,1634.57,1810.86,2004.57,2175.43,2392.57,2713,3070.29,3434.86,3657,3870.43,4057.71,4241.29,4426,4668.86,4894.29,5114.71,5332,5579.14,5952.43,6410.29,6715.14,7033.29,7324.57,7624.86,7927.43,8208.57,8404.29,8496.29,8576.71,8630.71,8665.86,8698.43,8720.71,-1,-1
AR,JOHNSON,35.45,93.47,2,8.86,15.14,21.43,27.86,31,34.14,35,37.43,44.71,62.57,87,142.71,207.71,271.86,381.57,486.86,571.71,626.71,666.14,693,735,757.86,781.71,799.86,818.29,848.57,880.57,911.14,941.71,1005.57,1058,1091,1142.57,1207.43,1266.57,1349.86,1469.29,1618.43,1746,1927,2140.57,2280,2384.43,2500.14,2575.43,2636.43,2686.14,2750.14,2797.86,2832.14,2859.57,-1,-1,-1
AR,LAFAYETTE,33.09,93.65,0.14,1.86,3.57,4.57,6.86,8.43,9,9,9,9,9.86,11.57,13.57,17.71,22.43,30.43,39.29,47.14,50.43,56,61.86,65.43,70.14,76.57,82.14,95.29,113.29,126.29,139.71,154.86,173.71,207,223.43,236.29,255.29,267.71,278.43,295.43,314.86,334.71,356.43,377.57,400.57,434.43,458,481,491.29,496.71,530.43,539.57,541,541,-1,-1,-1
AR,LAWRENCE,35.89,91.08,0.57,1.71,4.71,10.86,28,44.86,65.29,70.14,74.86,81.86,84.43,88.71,91,95,99.57,104.43,117.71,140.14,160.86,187.57,214.57,231.43,242.43,250.14,269.43,315.71,374.57,446.43,501,613.14,734.57,813.29,893.43,959.71,1026.43,1100.57,1177.43,1263.43,1337.86,1426,1531,1633.57,1737,1815.29,1874,1918.14,1959.43,1985.29,1997.29,2037.86,2055.71,2062,2064,-1,-1
AR,LEE,34.71,90.89,0.29,1.71,2.29,3,3,3.43,6.57,11.43,15.86,21.71,69.14,510.14,594.29,667.57,800.29,836.14,863,875,887.43,895.86,958.57,993.14,1003.29,1012.71,1027.57,1048.14,1060.71,1081.43,1091.57,1100.14,1108.71,1114.43,1121,1138.86,1161.43,1193.43,1261.57,1330.29,1375,1414.14,1470.57,1520.43,1559.57,1588.29,1600.14,1618,1627.57,1632.86,1639.86,1646.86,1649.14,1652.43,-1,-1,-1
AR,LINCOLN,33.98,91.56,0.57,5.57,7.43,23.43,162.71,686.57,825.29,916.57,954.71,970.29,978.71,984.86,989.86,1022.43,1036.71,1041.86,1047.71,1108.86,1144.14,1173.14,1211.43,1287.86,1370.71,1530.71,1715.14,1777.43,1888.71,1987.86,2065.43,2132.29,2195.71,2292.14,2335.43,2353.57,2364.14,2386.43,2450.29,2558.29,2653.29,2722.57,2783.86,2835.71,2894,2942.57,2989.29,3042.71,3082.86,3117,3127.43,3150.86,3156.57,3168.14,3171.86,3176.14,-1
AR,LITTLE RIVER,33.66,94.14,1,4.14,8.43,27.57,34.14,36.14,38.57,40,49.57,68.43,111.14,158.71,186.43,230.86,264.86,285.86,308.43,330,349,361.14,376.29,399.14,422.43,455.86,495.57,526.14,573.86,617.86,651.29,679.71,704,744.29,797.43,858,914,965.29,1008.43,1052.29,1092.43,1112,1121.86,1171.14,1191.57,1203.71,1208.86,-1,-1,-1,-1,-1,-1,-1,-1,-1,-1
AR,LOGAN,35.13,93.71,0.43,1.86,2.71,3,2.71,3.14,4,4,6.57,12.57,18.43,28,44.14,58.29,80.29,105.29,123.29,167.29,263.43,333.86,348.29,362.86,368.86,379.86,390.86,409.14,444.29,498.29,542.71,585,612.29,651.71,743,852.71,951.86,1062.43,1157.14,1266.57,1358.14,1493.14,1661,1786.86,1897.57,1975.43,2065.14,2128.43,2157.43,2169.57,2184.29,2195.71,2203.14,-1,-1,-1,-1
AR,LONOKE,34.96,92.02,0.57,5.86,20.57,28.86,27.57,37.57,43,44.14,45.43,45.86,50.86,61,73.71,93.86,136,172,206.57,262.43,357.43,447.29,522.14,582.43,656.29,722,784.86,924.57,1054,1200.14,1325.71,1429.43,1546.71,1727.43,1891.57,2088.43,2300.71,2521.71,2740.43,3016.57,3313.71,3673.29,3981.43,4436.57,4923.71,5311.57,5677.14,6011.14,6361.57,6593.29,6688.43,6816.86,6908,6966.29,7006,-1,-1
AR,MADISON,35.81,93.83,0.29,1,1,1,1,1,1.43,4.57,24.86,54.71,116.29,153.14,187.14,206.57,222.29,232.14,246.14,261.29,270.71,280.14,286.43,296.14,309.14,319.14,333.29,356.57,377.86,397.71,412.43,427.43,446.86,482.29,529.43,577.29,638.57,756.57,833.86,922.14,991.14,1073.71,1152.71,1215.86,1283.29,1344,1375.14,1389.29,1397.29,1404.57,1411.86,1419,1426.57,-1,-1,-1,-1
AR,MARION,36.37,92.58,0.29,1,1,1,1,1,1,1,2,2,2,2.71,7.71,12.14,14,16.71,20.43,24.43,30.43,36.71,42.43,47.29,55.29,67.43,83.57,102.29,110.57,121.86,138.57,159.14,195,241.71,337,412.86,460.43,498.57,535.57,577.14,623.86,694.29,761.86,806.29,843.14,882.86,907.29,920.29,933.71,971.86,983.29,995.43,1019.14,-1,-1,-1,-1
AR,MILLER,33.11,93.95,3.43,14.57,26.57,30.14,33,35,38.43,42,42,47.14,59.29,73.43,94.29,116,217.14,287.29,360,428.71,478.14,519.29,541.29,579.86,616.43,666.43,734.14,789,847.29,951,1070.86,1225,1440.43,1669.14,1819.29,1939.14,2082.86,2178.86,2283.43,2377.71,2529.57,2706.14,2856.43,3025.43,3165.29,3287.86,3437.43,3600.71,3702.86,3757.29,4013,4087.43,4125.14,4169,-1,-1,-1
AR,MISSISSIPPI,35.91,89.74,0.57,5.14,7.43,9.43,16,37.43,55,66.14,72.14,77.71,85.71,101.86,127.29,178.14,256.71,359.14,486.29,628.14,881.43,1068.29,1195.57,1296,1374,1455.14,1539.29,1630.29,1715.29,1803.29,1930.86,2125.86,2312.14,2487.57,2704.14,2898.86,3081,3324.43,3640.29,3910.71,4147.86,4350.29,4576.71,4794.57,4960.57,5137.43,5326.29,5450.43,5503.71,5535.57,5678.71,5694.57,5708.43,5731.29,-1,-1,-1
AR,MONROE,34.88,91.18,0.57,1.14,2.29,4,4,4.14,5,5,5,5.29,5.57,7,9.29,14.29,18.57,27.86,37.86,48.86,55.57,67.86,83.43,91.29,96.86,101.29,109.29,124.71,139.29,164.29,190.57,204.86,218.43,241.71,259,278.43,298.86,321.86,356,389.57,433.57,478.71,533,584.14,640.57,703.29,755.57,796.29,816.71,824.14,830.57,840.86,851.29,857.86,-1,-1,-1
AR,MONTGOMERY,34.41,93.64,0.71,1,1,1,1.43,2,2.29,2,2.86,4.57,7,9.29,16.57,23.14,30.43,38.43,50.86,69,108.14,119,128.29,141.43,158.29,170.43,176.29,180.86,183.71,193,205.57,226.57,268.29,319.86,371.71,416.71,452.86,489.86,539.57,602,625.14,644.43,667.14,697.14,715.57,724.29,732.57,740.43,744.14,747.86,-1,-1,-1,-1,-1,-1,-1
AR,NEVADA,33.71,93.13,0.57,1,1,1,1,1.43,3,3.86,4.14,6,46,78.57,90.29,100.29,104.29,109.57,116.29,123.43,131,140.57,146.86,155,161.86,165.86,178.71,203.71,220.57,232,249.71,267.71,296,333.14,363.43,387.86,425.14,456.86,491.43,516.29,551.14,585.43,605.29,625.43,646.29,684.57,717.29,740,757.86,766,786.86,796.57,804.29,813.71,-1,-1,-1
AR,NEWTON,36.08,93.3,0.14,1,1,1.57,2.71,3,3,3,3,3,3,3,3.29,4.57,6.57,8.29,14,54,92,102.43,106.71,107.71,114.86,134.14,161.43,200.71,233.43,251,267,282,296.29,318.86,337.71,365,398,432.86,466.29,494.43,513.86,539.43,557.14,590.71,604.14,625.71,642.86,660.71,669,676.86,690.71,694.14,697.86,702.14,704.43,-1,-1
AR,OUACHITA,33.56,92.84,1.71,5,5,5.29,6.71,8.14,9.57,10,10,12.29,13.57,17,19.29,21.29,32.71,45.14,62.71,76.57,95,113.57,128,148.14,175.57,205.57,239.29,258.43,274.43,292.43,326.71,365.14,396.71,428.43,487.71,595.57,736.57,900.71,1037,1166.71,1278.71,1405.43,1568.43,1718,1833,1950.43,2049.14,2110.86,2133,2179.43,2234.29,2254,2270.43,2285.14,-1,-1,-1
AR,PERRY,35.04,92.89,1.71,2,2.29,3.86,6.43,7,9.43,12,13.57,14.14,15.14,18.57,22.86,31.57,33.14,36,40,46.14,49.57,54.71,56.14,59.86,62.71,65.43,76.29,85,89.57,106.29,120.14,129.86,140.86,163.14,187.86,210.86,242.29,267.57,299.43,331.43,381.43,430,506.43,573.43,626.14,660.43,698.71,761.57,783.43,799.29,801,802.86,813,819.14,-1,-1,-1
AR,PHILLIPS,34.59,90.79,0.57,3.29,4,4.43,5.29,4,4.57,8.43,20.29,27,41.71,80.71,128.14,155.57,177,207,244.86,280.14,316.57,348.14,374.86,401.29,416.86,432.29,456.14,494.29,549.71,615.43,681.43,734.14,781.14,807.29,837.29,889.43,946.71,1008.71,1069.29,1166.71,1238.57,1291.14,1396.14,1481.86,1536.43,1603.29,1647.57,1665.57,1673.71,1697.57,1715.43,1724.71,1728.71,-1,-1,-1,-1
AR,PIKE,34.03,93.42,0.14,2.29,2,2,2,3,3,3,3,4,5,5.71,6.57,7,7.86,9.43,19,30.43,53,75.86,99.57,134.57,154.86,171.29,183.57,207.86,217.86,227,236,246,253.29,262.57,273.43,288.29,314.86,344.86,372.29,423.57,486,550.86,641.71,702.71,767.86,827.29,860.14,876.43,906.57,927.29,946.29,970.86,979.86,988.29,991.71,996.57,-1
AR,POINSETT,35.6,90.33,2.71,5,6.43,8.86,13,21.14,24.71,25.29,29.43,31.29,39.29,46.86,52,54.71,59.86,67.14,82.86,109.43,142.14,218.29,315,373.29,456.43,501.57,543.43,590.29,637,687.57,761,865.14,979.29,1125.14,1276.43,1411.86,1535.86,1627.71,1732.86,1891.71,2068.57,2251,2393.43,2548.43,2682.43,2803.57,2899.86,2976,3032.71,3050.86,3062.14,3081.86,3091.57,3100.29,3109.14,-1,-1
AR,POLK,34.54,94.1,1.29,3.57,5.57,6.14,7,7.57,7.29,7,8.29,11.71,24,43.86,57.14,67,73.57,80.57,91.86,105.71,122.57,132.86,149.71,177.71,209.86,226.29,239.29,249.14,253.29,267,289.86,315.29,342,357.86,390.43,473,606.86,731.29,832.71,954.29,1050.14,1132.71,1217,1338.29,1463,1556.57,1621.86,1692.86,1788.71,1843.14,1864.71,1896.71,1916,1930.43,1954.71,-1,-1
AR,POPE,35.69,92.86,0.86,4.29,13.57,28.43,34.57,39.86,44.14,47.86,68.57,111.43,150.43,202.29,260.57,328.29,409.86,495.43,662,851.57,1048.43,1201.43,1313.14,1441.14,1580.57,1734.57,1855.86,1941.86,2015.29,2124,2241,2389.14,2545.43,2699.14,2830.57,2981.29,3210.14,3479,3710,4017.14,4350,4772.43,5223.71,5704,6204.43,6608.14,6954,7187.86,7377,7528,7621,7729.43,7775.43,7806.29,7829,-1,-1
AR,PRAIRIE,34.83,91.53,0.14,1.86,2,2,2,2,2,2,2,2.57,5,9.43,16.14,20.43,23.71,34.86,50.14,56.71,74.86,98.57,111,114,116,122.43,132.29,140.14,153,166.86,183.14,195.43,220.86,255.14,290.71,323.71,344.57,364.57,386.71,426.14,482,529,576.86,619.71,683.86,740.86,804.57,843,854.57,860.14,873.71,881,884.86,886.43,-1,-1,-1
AR,PULASKI,34.65,92.24,28.14,96.14,159.14,270.86,381.57,470.43,546.57,619.71,689.86,780.29,902.14,1105,1290.14,1506.57,1871.29,2402.29,2973.14,3662.14,4339.14,4875.14,5546.14,6076.14,6544.71,7024.71,7472.29,8035,8626.86,9231.43,9795.29,10424.71,11105.86,11781.29,12434.29,13239,14370.86,15594.14,16763.29,18176.29,19804.86,21661.86,23406.71,25747.86,28220.29,30255,32067,33856.57,35510.71,36414,36715.71,37275.57,37636.14,37860.43,38081.71,-1,-1
AR,RANDOLPH,36.33,90.8,0.29,2.43,4.57,8.29,12.57,16.14,19.14,21.57,22.71,25.86,26,26.43,28.43,36.57,47.71,56.29,77.57,103.29,142.86,179.57,221.86,266.86,290.57,309.29,323.14,347.86,388.14,426.14,480.43,538.29,593.29,645.57,697.14,765.14,848.71,930.14,997.29,1107.86,1214.43,1309.14,1396.14,1515.86,1637.29,1737.86,1792.14,1844.86,1897.86,1908.71,1925.29,1990.86,2022.43,2042.29,2048,-1,-1
AR,SALINE,34.66,93,0.71,5.86,24.14,31.71,40.71,53.57,66.71,71.71,80.14,90,110,132.29,170.57,200.57,243.86,335.14,454.71,572.43,722,864.57,1027.71,1221.57,1362.86,1541.86,1670,1792.14,1925.86,2052.86,2233.71,2394.43,2563.43,2756.57,3004,3331.29,3780.14,4239,4769.43,5403,6039.14,6639.57,7164.29,7796.71,8623.29,9329.43,9834,10333,10816,11141.71,11247,11393.57,11498.57,11577,11653.43,11699.43,-1
AR,SCOTT,34.86,93.76,1,1,1,1,1,1,1,1,1,1.14,2.57,6.71,9.14,12.14,15.57,18.71,26.57,38.57,53.86,72.71,82.71,85.14,88.43,91.14,94.29,98.86,110.43,125,141.43,188.57,227.14,253,290,319.57,367.86,412,457,488.71,519.14,597.71,686.29,766.57,815.29,856.43,893.29,912.29,921.43,923.71,921,923.29,925,927,-1,-1,-1
AR,SEARCY,35.99,92.71,2.43,4.14,5.86,6,6,6,6,6,6,6.71,7,7,7,7,8.43,13.86,17.57,20.57,24,27.43,32.14,40.29,76.43,105.71,118.43,134.14,141,148,158.14,169.14,184,202.14,220.71,239,262.57,283.71,319,374.43,423.29,460.57,496.29,527,555.29,582,602.86,624,634.29,637.86,647.43,662.57,665,666.14,667.57,-1,-1
AR,SEBASTIAN,35.36,94.38,0.86,6,8.43,10.43,11.14,12.29,13.29,14.71,16.43,20.71,44.57,91.43,162.71,259.86,443.43,619.57,885.14,1164.14,1453,1853,2215.43,2469.14,2702.57,2879.14,3024.43,3219.14,3472.29,3743.43,3986,4305.86,4564.29,4815.29,5133.71,5626.29,6174,6667.86,7080.71,7587.43,8151,8686.29,9213.71,10156.43,11396.71,12407,13088.43,13613.43,14007.71,14269.86,14429.29,14591.86,14741.29,14850.14,14934.86,-1,-1
AR,SEVIER,33.83,94.11,0.29,1.43,4.29,6.86,8.86,10.57,12.14,17.14,29.43,75.43,182.29,323.86,425.57,557.57,655,732.86,796.43,846.57,897.29,932.14,981.14,1044.57,1109,1151.71,1167.57,1179.43,1191,1201.43,1211.57,1225.43,1261.57,1322.43,1395.43,1492,1569.43,1640.57,1706.14,1788.43,1856.71,1945.43,2020,2097.43,2170.29,2249.29,2304.29,2342.71,2446.57,2524.14,2561.71,2656,2731.43,2757.29,2771.29,2775.43,-1
AR,SHARP,36.23,91.25,1.14,2,2,3.29,8.57,14.57,37.43,42,46,48.29,50.14,50.57,53,57,66.43,79.43,90.14,102.86,111.86,126,135.43,148,154.57,165.57,192.71,222.57,252.57,277.57,302.43,348.43,385.14,440.14,527.29,621.43,702.57,789.43,868.29,978.43,1073.29,1183.86,1303,1376,1411,1446.57,1485.86,1508.86,1513.14,1521.14,1529.43,1535.71,1542,-1,-1,-1,-1
AR,ST. FRANCIS,35.01,90.78,0.14,5.57,32.71,58.43,73,86.71,152.86,327,549.86,664.29,715.14,769.14,785.14,803.29,851.86,900.86,938.57,1015.29,1110.43,1181.14,1234,1258.71,1316.86,1360.86,1382.57,1438.57,1497.14,1549.86,1591.43,1642.43,1691,1779.86,1830.86,1892.43,1960.71,2034.57,2136,2309.86,2508.14,2637.86,2760,2930.71,3097.86,3223,3298.71,3351.86,3395.14,3412.43,3433,3451.86,3471.29,3487.86,3499.43,-1,-1
AR,STONE,35.76,92.3,3,5,6.43,7,7,7.29,8,8,8,8.29,9.57,11,11,13,16.14,19.86,24.43,38.57,48.43,62,76.71,119.43,177.14,212.29,257.57,294.14,331,365.29,375.43,387.29,392.57,404.14,412.29,423.43,435.86,460.14,510,572.43,635.57,715.57,764,806.86,853,883.29,909.29,931,944.14,948.57,955.29,968,972.71,979.14,982,-1,-1
AR,UNION,33.32,92.53,1.71,8.71,14.86,19,27.86,45.29,67.14,90.43,126.86,163.14,178.29,193,213.43,234.29,249,261.57,285.57,334.71,393,456,522.57,588.14,658,703.29,750.57,821.14,861.86,914.14,969.71,1035.14,1091.14,1135,1219.14,1291.71,1381.43,1487.71,1607.29,1749.57,1916.86,2152.71,2396.29,2646.14,2858.57,3055,3242.43,3407.57,3542.86,3603.86,3638.29,3741.29,3818.43,3861.86,3895.43,-1,-1
AR,VAN BUREN,35.42,92.41,4.43,18.71,22.14,26,26,27.14,28,28,28,28,28.43,29.71,30,30,33.71,34.14,36.14,38.71,45.29,51.14,52.86,59.43,89.57,120.86,143.14,158.29,169.57,174.57,178.71,188.57,200.29,208.43,216.43,248.71,276.43,335.14,389.29,465.29,563.57,673,727.14,797.57,885.86,983.57,1047.57,1125.71,1162.86,1144.71,1156.14,1190.29,1215.14,1222.86,1231.29,-1,-1
AR,WASHINGTON,36.07,94.15,1.57,14.86,26.29,38.57,48.29,71.29,88,105.29,135.86,231.14,461.57,922.57,1663.57,2339.86,3191.43,3934.71,4459.43,5042.14,5583.86,5958.86,6254.86,6409,6579.86,6800.14,7458.29,8081.71,8828.57,9365.14,9853.14,10312.14,10784.71,11261.71,11778.14,12416.57,13347,14397.43,15363.57,16522.43,17803.86,19205.57,20460.14,21944,23878.43,25479,26642.43,27560.86,28282,28728.29,29033.71,29330.57,29576,29800.29,29961.86,30128,-1
AR,WHITE,35.3,91.57,5.86,20.86,27.57,28.57,30,33.71,35.29,36.29,38,42.86,48.29,54.86,69.57,80.86,92,123.14,164.43,198.14,249.43,303.14,367.43,435.29,508,556.43,604.29,692.86,808.86,932.57,1067.86,1235.14,1394.43,1555.86,1832,2190.57,2650.86,2967.86,3201,3464.43,3886.29,4305.29,4845.57,5448.71,5815.14,6145.86,6429.71,6759.86,6961.86,7045.14,7247.86,7611.71,7667,7720.43,7776.71,-1,-1
AR,WOODRUFF,35.28,91.36,0.86,1,1,1,1,1,1,1,1,1.29,1,1.71,5.29,6,6.86,9.71,15.29,17.14,17.71,20.43,22.71,25.86,27,27.57,29.71,39.29,49.43,57,66.86,79.43,101.14,125.86,147.71,160.86,178,194.43,211.29,246.14,283.71,314.57,357.57,422.57,467.71,510.43,540.86,578.71,597.43,604,616.29,624.57,626.86,629.71,632,-1,-1
AR,YELL,35.09,93.44,0.71,1,2.29,3,5.43,7.29,30.57,98.43,160.29,237,306.86,431,590.86,733.14,851,919.86,967.14,1031.14,1070,1091,1113.57,1154.71,1186,1205.14,1233.71,1255.57,1273.14,1295.14,1321.29,1340.14,1369.57,1424.57,1508.71,1593.29,1661.43,1804.43,1965.57,2165.57,2322.29,2521,2723.43,2863,2977.14,3071.43,3212.86,3289.29,3318.71,3361.14,3387.86,3396,3402,-1,-1,-1,-1
AZ,APACHE,33.83,109.19,1.14,12.29,21.29,66.43,163.43,313,496.71,687.14,936.71,1154.29,1437.71,1682.43,1933.86,2097,2268.29,2425.43,2553.43,2712.57,2887.29,3030.43,3159.86,3233,3291.71,3332,3362.43,3386.29,3440.86,3512.14,3579.57,3683.29,3766.43,3852,3992.14,4118.43,4348.57,4813,5322.86,5769,6362.57,6794.71,7164.29,7624.71,8173.57,8550,8993.14,9533.86,9811.71,10097.43,10246.86,10432.43,10616,10703.29,10757.57,10793,-1
AZ,COCHISE,32.19,110.38,1.86,5.14,11,18.57,32.14,38.14,40.14,44.14,51.71,66.57,106.71,177.57,290.57,476.14,700.86,938.57,1162,1318.86,1470.29,1596.86,1738.43,1781.86,1811.29,1836.57,1854.29,1873.57,1891.71,1914.57,1947.29,2009.29,2098.86,2190.57,2328.86,2594.57,2956.43,3436.57,4041.71,4887.29,5692.14,6701.71,7490,8395,9356.86,9889.14,10330.43,10544.86,10716.86,10905.29,11125.57,11274,11377.43,11464.29,11557,-1,-1
AZ,COCONINO,34.42,110.91,18.14,86.43,179.71,267.57,348.86,446.14,572.14,743,923,1048,1179.57,1301.57,1401.86,1594.57,1900.43,2237.86,2516.29,2723.71,2891.43,3015,3116.86,3195.14,3259.29,3337.29,3410.29,3595,3815,4135,4327,4541.29,4795.29,5139.86,5493,5979.86,6477.86,7083.43,7614.29,8462.43,9370.14,10212.43,10948.43,11888.14,13108.43,14157.86,14869.71,15331.29,15785.86,16067.86,16324.86,16599.29,16785,16888,16965.57,-1,-1
AZ,GILA,33,110.78,0.43,2.14,3,5.43,10.71,13,17.43,21,23.14,27.71,41,59.14,129.86,233.43,325.43,410.43,519.29,652.14,791,888.71,984,1050.43,1096.57,1124,1157.29,1209.57,1279.57,1402.43,1498.71,1667.86,1822.29,1956.43,2104.57,2295.86,2523.57,2885.71,3204,3532.71,3890.71,4219.86,4546.43,4928.57,5286.43,5628.57,5937.14,6119,6245.71,6328,6385.71,6414.71,6440,6475.86,6519,-1,-1
AZ,GRAHAM,33.07,110.25,2,2.14,2,2,3.57,12.14,18.57,20.14,20.57,24.86,37,44.57,55.57,70.29,107.14,172.57,229.14,322.57,428.43,509.71,566,626.71,693.29,732.86,767.43,780.14,804.86,850,907.29,971.71,1068.57,1183.57,1329.43,1529.29,1757,2041.86,2263.14,2449.86,2688.14,2936.86,3207.86,3644.14,4187.86,4558.14,4905.29,5134.71,5186.86,5232.71,5275.71,5300.29,5323.57,5341.14,5353.71,-1,-1
AZ,GREENLEE,33.27,109.27,0.57,1,1.86,2,2,2,2,2.43,3.14,6.29,9.86,11.71,14.57,18,23.29,33.86,39.14,48.57,56.29,57.14,57,57.57,58,58.43,58.14,58.14,59,59.71,64,75.86,101.29,103.86,115.29,133.29,181.29,233.86,294.29,330,356.71,384,419.29,462.71,485.14,509.57,523.71,536.14,544.86,553.43,559.14,560.71,562,563,-1,-1,-1
AZ,LA PAZ,33.93,113.86,0.57,2,3.14,4.43,5.86,9.29,16.86,25.43,40.57,51.71,95.57,192.14,234.57,286.14,337,374.86,414.14,442.71,465.29,475.14,481.86,491.86,496,502.29,519.29,528,536.86,544.86,552.43,573.14,600.14,616.43,631,655.86,699.57,771.57,889.43,1006.57,1098,1217.43,1387.29,1654.71,1893.29,2052.57,2184.29,2257.57,2317.57,2361.86,2383.43,2403.29,2425.86,2421.14,2434.71,-1,-1
AZ,MARICOPA,33.45,112.06,84.14,578.57,1284.86,1929,2566.86,3348.14,4564.57,5839.29,7174.57,8241.86,9840.86,13319.71,18867.57,29836.29,44321.57,62485.29,80007.43,95200,108201.43,119650,125842,129182,131732,133542.57,135827.43,137409.57,139883.57,141211.71,143239.14,146203.57,149767.71,154091,159450.43,166759.71,176450.71,190809.57,206559.14,229896.57,256345.57,282329.43,306340.57,340086.71,383224.14,418733.43,449549.29,472983,488084,498251.71,504998.14,510481.14,515738.86,520494.43,521403.43,-1,-1
AZ,MOHAVE,34.79,113.37,0.29,6.29,18.71,38.43,57.57,94.14,140,197.14,257,318.86,401.43,510.29,616.14,768.86,1054.57,1458.43,1923,2373.43,2782.86,3043,3228.29,3384.43,3511.71,3624,3753.14,3796.57,3909,3987.86,4057.57,4100.14,4195.29,4296.86,4489.29,4777.43,5150.43,5712.43,6358.29,7417.29,8678.43,10224.71,11748.57,13684.43,15546.29,16862,18364.29,19500.43,20166.86,20561,20909.14,21206.71,21424.43,21664,21930,-1,-1
AZ,NAVAJO,34.23,110.07,8.14,61,169,309.86,443.43,600.57,763.86,962.29,1220.29,1479.86,1801.57,2138.86,2568.14,2967,3436.43,3844.86,4278.14,4722.71,5032.86,5232.14,5357,5444.29,5493.29,5576.29,5645.14,5681.43,5740.14,5779.29,5813.57,5887.29,6092,6263,6479.71,6759.14,7086.29,7519,8039.14,8651.43,9543.71,10227.71,10887.86,11630.14,12401.43,13214.86,13884.14,14366.57,14846.86,15167.71,15408.71,15590.14,15730.57,15574,15591.57,15637,-1
AZ,PIMA,32.15,112.62,80.71,260.14,508.86,771.57,1027,1243,1467.71,1703.86,1937.57,2185.57,2729.29,3510.71,4720.29,6569.57,8642,10822.71,12692.86,14252.29,15883.29,17273.14,18849.14,20142.71,20965.71,21505.71,22181.14,23576.86,25085,25701.71,26199,26694.71,27215.43,28146.43,29578.71,31590.14,34444.71,38131.29,42235.86,48697.57,56123.43,63373.29,69937.57,78096.14,86580.29,93716.86,99461.57,103363.57,105981.86,107640.29,108968.29,110059.57,110902.29,111550.71,112092.29,-1,-1
AZ,PINAL,33.42,111.54,19,61.29,116.86,177.57,272.71,371.29,490,629.14,714,773.57,911.43,1189,1729.43,2630.86,3612,4781,5925.71,6830.43,7663.86,8276,8493.86,8895.29,9278.43,9639.57,10036,10224.29,10409,10611.71,10824.14,11117.86,11465,11818.86,12315.43,12999,14062.71,15559.29,17128.29,19400.43,22217.86,24516.86,26901.57,30229.29,34445.43,37520,40708.29,42865.86,44139.14,44906.43,45707.86,46394.57,47065.43,47992.29,48937.14,-1,-1
AZ,SANTA CRUZ,31.57,110.54,0.57,2.14,4.29,8.86,19.29,30,34.29,43.71,79.29,161,324.14,649.29,1079.14,1434.86,1715.14,1974.29,2171.86,2325.14,2500.14,2608.86,2664.14,2704.57,2735.43,2753.71,2774,2785.57,2816.86,2839,2882,2909.43,2947.86,2980.71,3055.86,3135,3291.57,3575.57,3922,4399.71,4911.29,5363.14,5758.86,6213.86,6650.29,7022.86,7275,7422.43,7510.57,7570.14,7605.57,7630,7653.86,7685,7743.14,-1,-1
AZ,YAVAPAI,34.13,112.13,0.43,9.29,36.43,61.43,69.71,74.86,83.71,160,245.57,279.43,294.57,315.43,362.29,424.57,608.43,868.86,1076.86,1312.71,1526,1753,1965.71,2109.86,2218,2283.57,2345.86,2403,2455.86,2514.86,2594.86,2679.43,2757.43,2859.86,3002.57,3216.43,3549.43,4187.57,5090,6329.57,7659.29,9014.57,10415.71,11591.71,13241.86,14536,15608.86,16374.86,16774.14,16945.71,17168.43,17485,17723.43,18090.43,18237.29,18300,-1
AZ,YUMA,32.94,113.34,2.57,12.14,14.71,19.57,33.57,68.29,134.29,251.43,457.14,788.14,1423.71,2556.71,3734.57,5142.71,6427.71,7747.86,8754.14,9707.43,10678,11323.43,11700.29,11950.29,12119.86,12265.43,12349.29,12455.14,12615.86,12748.43,12887.29,13092.71,13337.14,13721.57,14153.29,14822.43,15782.29,17142.86,18463.57,20735.71,23558.71,25539.71,27324,29645.57,31894.14,33546.86,34642,35337.57,35870,36154.57,36354,36485,36574.29,36623.14,36691.86,-1,-1
CA,ALAMEDA,37.77,122.27,92.14,320.57,601.14,903.43,1212.29,1522.14,1800.29,2112.57,2476.86,2925,3456.43,3947.57,4417.71,5037.57,5868.29,6934.14,8097.71,9357.57,10606.71,11793.57,13344.57,15370.14,17014.14,18294.29,19362.57,20024.57,20677.43,21272,21760.29,22214.29,22732.57,23411.57,24093.14,24977.14,26209.57,27767.43,29828,33255.29,38198.29,44037.71,49694.29,55020.43,61047.29,67178.86,70924.29,74208.14,76583,78631.29,79705,80753.71,81475.14,82132.43,82697.43,-1,-1
CA,ALPINE,38.73,119.84,0.29,1.29,2,1.29,1,1.57,2,2,2,2,2,1.29,1,1,1,1,1.86,2,2,2,2,2,2,2,2,2,2,2,3,3,3,3.86,5.57,11.57,27.29,41,51.14,60.86,64,64.43,66.86,70,71,71.43,72,72.14,76,76.86,77,77.71,80.29,82.43,84.57,-1,-1
CA,AMADOR,38.43,120.84,1,1.71,4.29,6,6.86,7,7,7.71,8.71,9.86,9.57,9,11.14,17,25.29,34.57,46.43,66.57,107.57,155.14,200,218.29,230.57,255.29,275.43,281.86,286.86,293.14,300.14,306.29,316.29,336.43,361.57,387.86,428.71,482.29,646.57,1106,1657.86,2004.57,2402.57,2701,2915.86,3028.43,3112.71,3269.71,3358.71,3414.86,3445.43,3475.86,3495.29,3510,3526.71,-1,-1
CA,BUTTE,39.42,121.36,3,7.86,12.43,15.29,16,16,18,20,27,38.14,52.86,69.86,84.57,117.29,175.71,275.86,416.29,647.71,855.29,1014.29,1249.86,1467.71,1710,2113.57,2465.14,2662.14,2769.71,2841,2910.43,2978.14,3025.14,3102.86,3198.71,3318.29,3505.57,3780.29,4153.86,4673.43,5418.43,6389.86,7161.29,7974.86,8783.57,9461.43,9874.43,10260.71,10531.29,10729,10870.71,10986.86,11081.43,11148.71,11222.57,-1,-1
CA,CALAVERAS,38.07,120.55,1,3,5,8.86,12.14,13,13,13,13,13.86,15,20.43,26,28.43,36.14,56.43,70.43,91.43,104.86,129.71,146.71,177,205.86,245,278.57,301,312.29,319.14,326.14,330.43,335.57,344.14,357,369,394.14,443.57,501,614.57,733.86,928.14,1088.43,1244.86,1432.71,1590,1698.71,1773.57,1833.14,1866.29,1862.29,1880.71,1906.14,1934.43,1963.29,-1,-1
CA,COLUSA,39.02,122.04,0.29,1.29,2.86,3,3,3,3,3,3.86,5,6.71,7,7,12.71,52.43,96,144.29,236.71,298.86,351.86,395.86,417.29,432.71,459.29,482.14,500.43,522.71,535.14,540.71,544.14,548.29,553.71,573.57,591.43,618.71,680.14,756.43,883,1023.71,1180.71,1320,1473.14,1650.57,1781.71,1907.14,1973.57,2047.57,2097.71,2125,2138.29,2150.86,2155.29,2159.71,-1,-1
CA,CONTRA COSTA,37.86,121.64,56.57,204.14,407.29,568.29,716.71,834,955.14,1054.43,1165.29,1332,1473.43,1712.14,1992.57,2372,2977.57,3889.43,4855.29,5832.86,7152,8072.43,9534.29,11429.29,12856.43,13908.57,14677.14,15387,16043.43,16720.71,17257.57,17640,18098.86,18627.86,19234.43,20043,21314,22847.14,24568.86,27321,30897.43,35288.86,39022.71,42989.43,47862.43,52435.86,55204.57,57513.43,59278.86,60674,61740.29,62720.14,63462.43,64093.29,64683.71,-1,-1
CA,DEL NORTE,41.78,124.16,0.29,2,2,2,2.86,3,3.43,13.29,36.43,46.29,47,47.57,48.57,51.14,58.29,61,73.71,87.71,91.57,102.43,110,119.14,123.14,125.29,133.14,137.71,142.14,156.43,170.71,174.71,179.71,193,206.86,233.71,293.43,353,466.29,551.14,662.29,735.57,786,828.43,863.29,877.57,887.14,908.14,940.43,976,1008,1039.14,1073.14,1108.29,-1,-1,-1
CA,EL DORADO,38.8,120.88,1.14,13.71,23.86,32.86,37,42.43,49.29,56,65.14,75.43,92,107.29,115.14,137.57,168.57,240.29,323.29,422.29,541.14,650.43,748.71,841.57,909.71,960.29,1005.29,1039.14,1070.29,1125.43,1183.43,1240.14,1277.71,1322.14,1393.29,1493.14,1647.29,1902.71,2357.29,3004.14,3754.57,4576.14,5262.57,5928.14,6782.71,7527.29,7949.57,8275.43,8558,8757.86,8903.71,9056.86,9162.86,9224.14,9286.71,-1,-1
CA,FRESNO,36.19,120.39,1.86,33.43,97,184.29,296.29,433,596.57,838.57,1125,1403.71,1701,2058.86,2468.14,3129.71,4250,5799,7815.57,9622.86,12134.43,14687.57,16879.57,19383.14,22397.86,24340.57,25919,26843,27487,28126.86,28790.71,29178.71,29748.14,30544.86,31449.71,32291.71,33642.14,35489,37753.14,39837.43,42673.86,50974.29,61324.71,66686.71,72704.14,79260.86,84177,87508.57,90189.86,92228,93780.57,95039.57,96068.14,97038.71,97861.86,98616.14,-1
CA,GLENN,39.72,122.14,1.43,2,3.57,4.14,5,5.14,6.57,10.71,12.57,16.57,20.14,31.14,56.43,101.43,131.57,166.14,215.71,268.86,314,359.43,400.43,421.86,439.29,479.86,521.57,550.86,579.29,601.57,623.57,634.86,655.57,686.29,711.14,774.43,845.71,942.43,1060.43,1172,1299.71,1421,1636.43,2053.43,2213.43,2375.43,2454,2528.43,2627.86,2668.86,2701.71,2723.29,2746.71,2779.86,-1,-1,-1
CA,HUMBOLDT,40.8,124.15,1,17.14,41.57,50.14,52,52.71,54,57.71,75.43,91.57,100.29,109.14,109,110.14,128.86,143.14,167.86,186.29,210.14,234.14,280,310.43,347,372.86,410,452.71,483.29,500.86,518.14,529.86,547.14,563.14,573.57,607.29,661.86,740.71,857.86,1031.86,1238.14,1414.86,1587.14,1813.57,2044.29,2275.14,2520.43,2758.57,2908.86,3008.86,3079.43,3182.86,3271.29,3351.57,3416.29,3452.29,-1
CA,IMPERIAL,32.79,114.53,15.71,47.29,78.29,134.86,222,330.57,455.57,697.71,1072.57,1583.57,2574,3579.86,4595.43,5611.86,6690.43,7580.57,8287.14,8861.57,9296.29,9589,9941,10301,10562.71,10861.71,11162.71,11460.71,11719.86,11960.86,12126.43,12349.57,12626.71,12995.57,13323.71,13756.71,14592.57,15730.86,16462.43,18001.29,20026.86,21321.71,22344,23419.71,24700,25419.29,25902,26358.43,26589.14,26801.29,26858.43,26944.57,27051.86,27171.71,27335.14,-1,-1
CA,INYO,36.29,116.45,3,9.43,11.43,16,18.71,20,20,20,20,20,20.29,22.43,24.57,27.29,30.14,33.71,36.43,39.14,43.86,64.57,101.71,135,152.29,167.29,172.71,176.29,181.29,189.86,198.43,207.43,220.43,234.43,245.71,255.86,265.43,285.14,312.57,353.14,425.57,516.14,583.14,652.43,788.29,917.43,1031.14,1084.29,1141.86,1200,1256.14,1296.29,1330,1351.57,1366.86,-1,-1
CA,KERN,35.08,118.79,16.71,105.57,277.86,486,669.14,858.29,1063.43,1333.86,1591.43,1918,2368.14,2884.57,3453.29,4051,4702,5623.29,6842.86,11220.71,17983,21210,24601.43,26973.14,28465,29477.29,30267.86,30944,31638.43,32098.29,32615.86,33087,33563.29,34032.14,34698.43,35684.29,37155,39564.57,42554,46598.29,53291.14,60231.43,66993.43,73119.43,80649.14,86609.29,91153.14,95037.57,98159,100673,102184.86,103598.43,104429.86,105055.57,105671,-1,-1
CA,KINGS,36.31,119.71,0.57,4.43,7.57,19.14,42.14,113.57,241,359,484.43,765.71,1299.43,1695.43,1979.43,2251.86,2543.57,2848,3159.71,3652.71,4209.57,4453,5160.43,5703.57,6082,6532.29,6961.43,7230,7592.71,7716.86,7983.14,8122.86,8191.86,8455.86,8807.29,9292.14,9831.86,10657.71,11657.57,12864.86,14062.57,15218,16145.86,17196.43,18483.86,19630.57,20408.86,21009.29,21452.86,21746.86,21967,22127.43,22286.86,22447,22561.29,-1,-1
CA,LAKE,38.96,122.64,2,4.86,6,6.29,7.57,8,10.43,16.29,26.14,30.14,33.43,39.29,65.71,97.29,124.43,154.29,178.43,202.29,237,271.57,299.86,336.29,364.71,406.43,498.43,558.14,592.43,632.43,668.43,697,729.29,755.71,786.71,852.29,946.57,1100.57,1298.14,1518.43,1771.86,1982.14,2223.43,2577.29,2725.29,2839.71,2949.57,3037.29,3110,3166,3197.71,3241.57,3290.14,-1,-1,-1,-1
CA,LASSEN,41.06,121.11,1.43,4.86,5.86,9,9.57,128.14,237.14,299.43,484.14,541.57,605.14,647.71,696.43,703.57,715,717.86,726.71,731.14,738.29,742.57,750.43,754.14,764.29,773.57,790,1024,1380.43,1819.86,2390.57,3088.14,3815.14,4232.71,4691.29,4953,5075,5242,5364.86,5437.57,5497.14,5559.29,5599,5620.71,5629.29,5633.86,5644.43,-1,-1,-1,-1,-1,-1,-1,-1,-1,-1
CA,LOS ANGELES,33.97,118.24,926,3575.29,7428.29,10488.71,16127.43,22242.43,28465.43,34347.71,40857,48930.71,58478.43,67535.43,76936.29,89594.43,105596.57,122492,143403.14,164200.71,182442,198787.86,214364.43,226000.14,235564.43,243988.71,250360.14,256491.71,263555.14,270500.14,277506.71,285060.57,292590.71,303547.86,314066.43,328582.29,349701.57,378594.86,416008.71,478962.43,565236.71,661811.43,760691,858336.86,961084,1039624.86,1092242.86,1130239.86,1155971.43,1172881.29,1186082.57,1197076.29,1207055,1212542.29,1216466.57,-1,-1
CA,MADERA,37.39,119.73,3.71,19.86,29.43,32.71,35.43,43,53.29,67.71,76.57,88.14,116.43,170.43,235,342.14,481.57,706.43,1020.57,1383.57,1782.43,2120,2492,3091,3444.57,3772.29,3997.14,4206.14,4369.29,4520.14,4683.29,4774,4883.86,5017.57,5111.86,5296.29,5511.29,5865.57,6251.57,6923.86,7982,8960.14,10025.14,11103.14,12181.14,13248.29,13956.43,14484.14,14834.14,15073,15290.86,15484.86,15662.57,15790.43,15893.29,-1,-1
CA,MARIN,37.97,122.5,14.29,79.29,132.29,159.29,191.57,217.57,240.57,256.57,302.29,384.57,467.86,575.14,715.14,1051.29,1846,2651.43,3133.14,4053.43,4619.86,5032,5325.43,5722.57,5898.29,6107.14,6312,6439.29,6568.57,6702,6776.57,6885,6993.57,7071.57,7143.86,7240.57,7365.14,7536.86,7739.57,8017.29,8426.29,8952.14,9495.43,9997.71,10696.86,11414.86,11913.57,12250.71,12482.29,12718.14,12918.71,13094.86,13263.86,13374,13455.57,13557.71,-1
CA,MARIPOSA,37.47,119.66,8.29,14.86,15,15,16,16,16.14,17.86,22.57,28.14,31.57,35.71,44.57,54.29,60.29,63.57,68.57,71.71,73.71,74.43,75,75,76,77,77.57,78,80.57,84.14,89.57,98.43,128.29,151.43,172.29,189.43,214.14,253.71,305,338.57,348,362.43,375.57,384.86,389.71,394.43,395.14,396.29,401,407.57,-1,-1,-1,-1,-1,-1,-1
CA,MENDOCINO,39.21,123.69,1.57,3.86,4,4.14,6.71,11.57,16,12.57,16.43,25.86,31.71,36.14,48.43,69.43,82.14,101.29,164.86,227.14,291.43,360.57,495.43,580.57,657.71,720.71,776.43,817.14,892.14,963.71,1024,1065.57,1115.43,1149.86,1199,1254.14,1341.29,1490.29,1652.57,1860.29,2092.14,2300.29,2498,2755.29,2996.14,3172.71,3337.29,3495.14,3642.43,3745.86,3793.71,3824.86,3859.29,3889.57,3926.14,-1,-1
CA,MERCED,37.07,120.63,1.86,10.86,35.29,73.86,93.57,115.71,149.14,177.86,221.43,267.71,306.14,370.57,473.86,693.86,990.14,1582.29,2144.14,2813.71,3717,4600.29,5917.71,7108.14,7673.14,8070.57,8397.71,8643.43,8809.86,8955.57,9089.57,9230.57,9386.86,9559.71,9817.71,10168.14,10654.43,11347.29,12233.43,13731.57,14944.29,17068.86,18816.71,20517.71,22519.86,24234.57,25645.14,26714.43,27452.14,28069.14,28734.57,29178.43,29579.86,29966.71,30281.43,-1,-1
CA,MODOC,41.15,120.89,0.86,3.43,5,5,5,10,19.29,21.29,22.86,26,26.29,27,26,29.29,42.71,56.14,70.86,90.71,108.71,133.57,176,188.71,226.57,251.86,271.43,280.43,289.71,304.29,315.43,325.86,328.57,332,338.14,340.43,341.57,-1,-1,-1,-1,-1,-1,-1,-1,-1,-1,-1,-1,-1,-1,-1,-1,-1,-1,-1,-1
CA,MONO,37.87,118.54,1.71,12,19.29,22.43,23.57,25.14,26.43,31,33.71,34.43,36.57,37,37,38.71,40.57,46.43,53,84.14,118.71,145.14,156.43,160,161.43,162,162,163,164.86,166,168.71,172.43,175.29,180.14,231.57,374.29,483.57,508.57,538.29,572,662.29,767.14,849,889.29,973.71,1079.86,1114.43,1142.43,1162.29,1177,1187.29,1191.14,1199.71,1207.14,1249.57,-1,-1
CA,MONTEREY,35.85,120.8,5.71,30.29,56.29,82.14,131.57,174.57,222.86,263,323,388.14,506,680,904,1198.57,1498,1943.43,2554.14,3153.86,3901.86,4670.86,5252.86,6180.57,7075.71,7739.29,8431.14,8884.71,9446.29,9882.14,10284.71,10619.86,11006.43,11356,11733.71,12210.43,12849,13716.57,15055.86,16729,18427.57,22279.71,25684.57,28590,32021.29,35127.57,37230.43,39263.86,40472.57,41270.86,41823.14,42209.57,42394.71,42562.14,42716.86,42876.14,-1
CA,NAPA,38.18,122.25,7.14,18.86,29.14,41.71,57,68.29,78,84.86,96.86,111.43,128,167.86,209.71,261.29,359,474.29,568.57,702.86,859.29,1020.71,1170.14,1292.14,1386.14,1459.29,1531,1589,1655.71,1725,1780.71,1841.57,1925,2003.86,2154.43,2386.86,2637.71,2937.57,3300.14,3902.57,4534.57,5163.29,5745.29,6362.43,7044.71,7718.14,8180.71,8529.86,8759.43,8867.86,8982.71,9088.29,9164.71,9230.86,9322.29,-1,-1
CA,NEVADA,39.16,120.95,4.43,21.43,32.86,34.29,36.71,39.57,41,41,41,41,45.71,50.57,61.29,89.14,116.29,147.29,182.14,230.71,278.57,316.14,350.71,389.57,423,447.57,469.86,494.43,521.86,539.71,551.86,572,594.57,625.14,670,742.14,912,1125.29,1394.14,1796.71,2094,2342.86,2542.57,2776.43,3001.71,3201.14,3384.29,3550,3680.43,3786.14,3907.86,3983.57,4065.14,4134,4187.43,-1,-1
CA,ORANGE,33.84,118,66.29,414.43,830.86,1239,1605.43,2051.86,2753.86,3501.29,4376.43,5293.57,6340.86,7502.57,8643.14,10243.14,13014.86,18874.57,24531.43,29678.29,34154.71,37172.57,40015.71,43535,46005.43,48340,50617.43,52054.57,53321,54689.86,56100.71,57413.43,58728.43,60385.14,62090.86,64207,67252,72340.43,79610.29,89261.14,104982.71,126325.29,152608.86,174479.57,199525.43,222390.71,235727.43,245547.29,252070.14,256600.14,259234.29,261160.71,262628,263781.29,264741.57,-1,-1
CA,PLACER,39,121.09,2.86,40.14,91.14,121.43,130.29,137.71,152.43,166,172.86,181.14,203.29,263.57,344.14,470,591.86,794.86,1024,1257.43,1564.14,1859.43,2125.14,2518,2716,2911.71,3115,3275,3414.29,3548.29,3629.29,3739.71,3883.29,4076.29,4327.43,4666.57,5120.14,5699.57,6346.14,7274.29,8903.71,10733.57,12425.57,13831.14,15363.29,16670.71,17616.86,18323.71,18774.71,19172.71,19508.29,19746.57,20003.29,20258.86,20479.29,20726.43,-1
CA,PLUMAS,40,121.24,1.57,3.43,4,4,4,4,4,4.29,4,4,4,4.86,6,8.29,11.71,15.29,19.71,23.71,25.29,30.57,34.86,38.43,39.86,42,44.29,47.71,48,49.71,51.57,57.57,70,88.57,113.86,147.43,181.57,214.71,271,319.29,366.71,400,443.43,489.14,514.29,542,564.43,594.71,622.29,626.29,631.14,638.71,646,653.14,-1,-1,-1
CA,RIVERSIDE,33.99,117.53,72.29,363.43,1033.57,1941.14,2952,3771.71,4485.29,5267,6035.29,7021.43,8071.14,9592.71,11674.57,14245.71,17863.43,22710.86,27180.14,31506.29,35959.14,38880.14,43188.43,48016.14,50928.86,52976.57,54458.43,55879.14,57431.29,59041.14,60843.29,62520.43,64501.43,66897.86,69341,72242,76548.86,82652.14,88405.14,104114.14,126529.29,152656,176071.14,199356.57,224784.29,247492.71,265488.71,276243.71,282999.57,286375.57,288432.29,290163.43,291365.14,292402.57,293379.57,-1,-1
CA,SACRAMENTO,38.58,121.49,40.86,195.14,449.29,725.43,925.57,1033.43,1111.29,1165,1229.57,1292,1408.71,1566,1763.86,2170.71,2894,4171.43,5533,7072.86,8897.57,10014.29,11438,14025,15811.71,17648.71,19073,20230.29,21413.29,22333.71,23080.29,23768.86,24447.57,25460,26477.14,28010.86,30530.43,33762.14,37449.57,42545.43,49027.71,55757.86,62462.86,68009.86,74319.71,79830.57,83439.57,86335.71,88457.14,90497.14,92125.14,93364.86,94373.29,95276,96197.43,-1,-1
CA,SAN BENITO,36.89,121.24,0.86,11.14,23.71,34.43,42.57,46.71,50.86,54.43,59.71,67.57,84.71,102,117.57,157.86,198.86,258.71,334.43,428.71,518.29,626,712.71,808.43,920.86,1044.71,1157.86,1219.86,1276,1330.14,1358.14,1377.71,1395.86,1426.29,1458.57,1499.14,1576.57,1694.71,1834.14,2059.29,2352.14,2764.57,3279.14,3710.86,4228.14,4750.43,5091.57,5332.71,5484.71,5602.14,5684.29,5749.57,5782.14,5813.29,5838.86,5852.14,-1
CA,SAN BERNARDINO,34.14,117.61,41.71,238.43,634.14,1026.29,1518.86,1947.29,2459.71,3168.86,3864.43,4746,5645,6596.57,8115.86,10326.14,12780.29,16646.43,21254.43,26092,30839.86,34271.86,38040.86,42866.71,46063.14,48208.14,49998.14,51306,53218.29,55155.43,56939.14,58835.43,60952.86,63722.86,66629.43,71109.71,78560.71,88079.57,97322.14,113607.57,139260.29,170827,193333,214830.71,238742.57,257304.14,269321.14,276117.43,279779.57,283057.43,285374.57,287110.29,288193,289128.71,290073.71,-1,-1
CA,SAN DIEGO,32.83,116.76,158.57,653.71,1380.43,1876.71,2361.71,3198.57,4121.29,5100,5984.14,6842.43,7644.71,8660.71,9658.71,11149.43,13832,17121.29,20448.57,24156.57,27527.29,30240.29,32925.86,34947.71,36791.14,38659.14,40856.14,42947.86,44915.86,46823.86,48712.86,50789.29,52722.14,54979.29,57502.14,60632,65590.86,72831,82126,94003.29,109266.57,129115.29,147360.43,169944.29,194980,213700.43,228417.29,238959.57,247250.86,252889.29,257483.86,260767.86,263430,265762.86,268000.43,-1,-1
CA,SAN FRANCISCO,37.77,122.41,40.86,302,527.86,841.57,1121.71,1364.29,1593.43,1888.29,2074.14,2318.29,2512.29,2715.29,2900.57,3085.71,3444.43,3823,4390.14,5076.86,5789.86,6665,7411.71,8153.43,8777.29,9322.86,9828.71,10253.71,10690.43,11079.71,11408.86,11621.86,11839.86,12082.71,12396.29,12871.29,13532.57,14322.43,15305.86,16532,18175.29,20264,22038.57,23983,26246.14,28500.29,30088.14,31308.14,32266,33161.71,33732,34185.14,34520.71,34751,34941,35193.71,-1
CA,SAN JOAQUIN,37.9,121.22,83.86,172.14,243.86,371.86,483.71,546.57,589.43,650,731.43,830.14,1046.14,1434.14,1948.86,2829,4159.14,5939,7596.29,9600.57,11285.71,12204.71,14256.29,15628.71,16847.43,18125.57,18777.14,19661.57,20089.71,20417.86,20770.14,21026.14,21503.29,21990.71,22491.86,23214.43,24376.71,25516,27033,30582.71,34846,40800,45512.29,50278.71,55216.43,58786.86,61221.86,63126.86,64658.14,65623.57,66499.14,67151,67724.86,68406.71,69256.14,-1,-1
CA,SAN LUIS OBISPO,35.25,120.62,33.43,80,99.29,119.57,140.43,175.14,204.86,228,247.43,263.14,278.14,305.14,360.29,453.43,598,796.43,1057.43,1354.57,1656.57,1931.29,2254.43,2544.71,2764.29,2991.71,3141.43,3289,3450.43,3608.86,3757.57,3909.86,4064.71,4207.14,4400.57,4815.57,5310.71,5851.71,6327.29,6970.14,7905.57,9086.57,10261.57,11982.86,14205.57,15843.29,17097,18020.14,18717.43,19106.86,19484.71,19727,19925.86,20110.29,20286.57,-1,-1
CA,SAN MATEO,37.5,122.3,66.86,284.43,545.29,684.29,864.71,1044,1259.43,1449.86,1641,1867,2131.29,2361,2559,2756,3094.29,3560.43,4000.71,4527.14,5073.57,5591.43,6196.14,7006.57,7604.43,8111,8607.14,9098.14,9513.57,9860.29,10220,10514.29,10777.86,11098.86,11407.86,11867.43,12488.29,13267.71,14228.86,15767.86,18042.43,20760.43,23114.43,25445.14,28457.43,31665,33954.14,35610.43,36862.43,37745.71,38377.43,38979.71,39366.57,39686.14,39943.86,-1,-1
CA,SANTA BARBARA,34.43,119.52,2.57,49.86,147.86,252,367,455.43,501.71,975.86,1413.71,1542.86,1637.43,1761.43,1938.29,2265.29,2682.14,3335.29,4070.71,4849,5631.29,6285.14,6704.43,7239,7622.57,7994.14,8321.86,8600.57,8830.43,9028,9236.71,9399.71,9554.14,9742.14,9929.29,10112.57,10392.57,10821.29,11325.14,11935.14,12946.14,14335.71,15821.86,17591.29,20287.57,23548.43,26055.14,28045.71,29568.29,30585.43,31299.14,31826,32254.57,32550.29,32784.71,33008.14,-1
CA,SANTA CLARA,37.36,122.14,408.86,943,1369.71,1759.86,1963.57,2141.57,2268,2374.29,2500.86,2681.57,2842,3043,3312.57,3795.43,4543.29,5605,6856.14,8243.29,9598.86,11153.71,13153.14,15036.71,16412.14,17747.86,18901.86,19839.57,20689.14,21409,22097.86,22803.71,23600.29,24565.43,25586.43,27179.57,29340,32086,36193.86,42762.43,51426.14,59782.86,68767.86,77686.57,87311.86,94880.57,99776.29,103270.86,106067.71,108040.29,109691.71,111106,112196.14,113052.86,113833.43,-1,-1
CA,SANTA CRUZ,36.97,121.89,14.71,46,70.43,89.14,106,122.43,136.43,143.43,160.29,197.14,214.43,233.43,260.71,307.14,368.43,474,599.14,801.14,974.29,1171.14,1283,1475.86,1660.57,1785.86,1950.43,2078.71,2256.71,2381.57,2515.57,2610.43,2718.29,2814.14,2948.43,3179,3503.71,4002.14,4531.43,5154.29,6051,7168.86,8253.14,9524.71,10885.29,12143.57,12940.86,13536,13991.57,14289.29,14496.29,14678.71,14865.71,15079.43,15225,-1,-1
CA,SHASTA,40.6,122.46,0.86,4,15.14,24.29,25.86,29.29,31,31.29,33.57,35.43,38.29,43.29,49.14,75.86,103,147.71,190.71,233.71,299.86,371.71,425.14,491.14,530.43,562.71,582.43,615.71,681.29,816.43,1055.57,1398.71,1683.29,1861.57,2090.43,2497.29,3070.86,3930.29,4802.14,5580.57,6681.86,7139.86,7666.29,8127,8902.43,9534.43,9927,10352,10617.86,10736.43,10860.71,10979.14,11091,11167.29,11152.43,11327.29,-1
CA,SIERRA,39.46,120.84,1,1,1,1,1,1,1,1,1,1,1.29,3.29,5.71,6,6,6,6,6,6,6,6,6,6,6,8.29,11,13.43,16.14,17.43,20.86,22.86,23.86,28.86,32.14,38.14,41.71,42.57,43.29,46.43,47,47.71,48,48.86,49.71,-1,-1,-1,-1,-1,-1,-1,-1,-1,-1,-1
CA,SISKIYOU,41.47,123.46,0.86,3,3.29,4.71,5,5,5,5,5.43,6,6.71,10,16,22,27,31.29,38.14,46.14,61.14,75.14,95,111.14,121,130.29,144.14,154.71,161.14,165,167.86,178,184.14,194.86,242.57,295.86,374,504.86,654.14,791.57,917.43,1025.29,1089,1186.71,1310.43,1405.57,1482.14,1539.14,1604.57,1661.71,1703.29,1753.14,1794.14,1830.57,1849.86,1870.14,-1
CA,SOLANO,38.11,122.13,34.57,65.14,116,159.14,194.14,260,344.57,405.29,448.29,507.29,564.29,638,798.57,985,1406.71,1961.86,2445.57,3012.86,3503,3927.43,4483.29,4966.57,5320.57,5618,5787.29,6039.29,6263,6476.29,6696.57,6935.29,7233.57,7547.43,8002.43,8577.71,9225.86,10015.43,11104.14,12371.71,14552.57,17027,19129.57,21754.57,24160.43,26101.86,27448.29,28499.29,29177.86,29642.43,29963,30243.71,30479.43,30693.57,30945.57,-1,-1
CA,SONOMA,38.33,122.97,28.71,78.71,121.57,159.86,194.57,230.29,272.71,327.71,410.43,518.57,584.14,674.86,787,942.43,1184.86,1487.43,1900.14,2250,2706,3198.71,3840.43,4597.71,5318.43,5910.86,6427.57,6795.71,7162.43,7518.43,8020.71,8549.71,8993.29,9467,9931.14,10484.14,11121.57,11695.86,12577.71,13712.43,15269.29,17124.14,18751.86,20259.86,22176.14,23996.29,25290.86,26267.14,26931.14,27354.86,27826.71,28223.71,28560.14,28820.14,29035.14,-1,-1
CA,STANISLAUS,37.96,120.87,4.71,30.86,72.86,136.71,221.86,296.71,411.71,497.43,567.57,642.86,736.14,910.43,1149.71,1621.57,2274.86,3417.57,4985.14,6392.14,7981,9123,10187.57,12414.71,13393.71,14540.29,15371.86,15938.43,16308.71,16465.86,16710.14,17024.14,17853.57,18354.57,18790.29,19351,20296,21628.29,23322.29,25828,29001.14,32602.29,35946,38878.14,42512,46262.14,48764,50910.29,52754.14,54152.71,55192.29,56115.57,56788.86,57532.29,58178.43,-1,-1
CA,SUTTER,38.89,121.8,0.29,6.43,17,22.71,25.43,28.86,30.86,33.43,38.86,40.86,44.71,59.14,83.57,111,166,261.29,402.29,520.43,657.43,805.57,966.29,1130.43,1262.71,1392.14,1482.43,1580.29,1658.71,1710.57,1753.86,1778.29,1807.29,1854.29,1926.57,2028.29,2295,2809.14,3412.43,4106.86,4866.14,5620,6184,6653.29,7124.86,7593.29,8002.29,8294.71,8545.86,8670.43,8784,8870,8932.14,8989,9051.29,-1,-1
CA,TEHAMA,39.92,122.28,0.14,1,1,1,1,1,1.14,2.14,3.57,5.71,8.71,20.43,43.86,70.43,95.43,116.57,144.43,188.43,224,274.86,325,383.14,422,454.71,477.71,516,577.57,647.14,707,793.86,895,974.43,1072.86,1265.29,1513.14,1738,2023.29,2352.29,2651.29,2934.86,3211.71,3529.29,3842,4079.14,4266.29,4408.29,4496.57,4553.86,4593.14,4617.14,4656.86,4704.43,-1,-1,-1
CA,TRINITY,40.95,123.43,0.57,2,2,2,2.71,3,3,3,3,3,3,3.86,5.43,6,7.43,9.57,12.29,14,15.43,16,16.43,18,23.43,21.29,26.57,30,42.29,65.43,104,148.43,175.29,203.29,218,237.14,244.71,250.57,261.43,262.43,260.86,262.86,271,283,297.43,302.86,306.71,310.43,312.71,-1,-1,-1,-1,-1,-1,-1,-1
CA,TULARE,35.86,119.46,22.71,75,186.29,353.43,459.86,645.57,961.71,1308.14,1587.86,1808.71,2074.14,2466,2945.43,3575,4422.43,5446.71,6448.43,7746.43,9163,10228.86,11767.57,12922.43,13735.14,14487,14977.86,15490.14,15861.71,16294.43,16690.14,17044.71,17399.71,17764.86,18180.14,18725.43,19498,20474,21934.71,24399.86,27534.57,30582,33310.14,36242.57,39610,42269.57,43738,44862.43,45814,46937,47766.14,48140.71,48468.43,48713.43,48917.43,-1,-1
CA,TUOLUMNE,37.82,120.25,0.71,1,1.43,2,3.43,3.29,2,2,3.29,4.29,7.43,8.71,13.14,28.71,50.86,73.43,98,129.43,143.14,155.57,163.71,177.43,183.71,199,215.29,224.14,227.43,232.14,239.86,254.14,276,302.57,363.14,571.86,813.57,1062.71,1311.43,1788.57,2435.14,2823.86,3039.14,3225.14,3353.29,3480.57,3584.71,3710.14,3825.14,3905.86,3958.14,3979.71,3995.86,4013.57,-1,-1,-1
CA,VENTURA,34.18,118.91,10.57,96.57,202.71,303.57,406.86,483.86,557.43,660.57,788.14,936.57,1100.86,1281,1540.14,1891.71,2508.14,3533,4413.43,5436,6543.29,7569.71,8394.43,9237.43,9861.71,10594.29,11177.43,11684.14,12231.29,12670.71,13084.43,13454.86,13796.14,14173.71,14558.29,15216,16168.43,17743.43,19410.29,22231.86,25307.86,30040.57,35215.29,41895.14,50400.71,58931.86,64832.86,69490.43,72926.71,75180.71,76552.43,77497.29,78287.57,78703,79104,79474.86,-1
CA,YOLO,38.59,121.54,12.57,29.71,71.43,120.57,152.86,165.86,172,180.14,187.43,206,216.71,239,296.29,411.71,586.29,806,1062.29,1278.14,1495.43,1666.86,1944,2141.57,2298,2478.71,2613.86,2721.29,2780.14,2842.43,2921.14,3017.14,3125.43,3253,3400.29,3665.71,4008.14,4549.57,5108.57,5799.86,6651.71,7477.43,8234.14,9098.86,9977.43,10831.57,11440.57,11926,12259.57,12509.71,12755,12889.71,13030.43,13170.86,13272.14,-1,-1
CA,YUBA,39.04,121.39,2.14,6.14,12.57,15,16,17,19.29,22.71,27.29,28.29,30.71,32.86,37.14,46.71,82.14,147.29,220.14,305.43,420.43,534.86,677.86,801.43,881.14,942.86,1021.57,1089.86,1133,1170.43,1208.57,1238.71,1276.86,1325.71,1394.29,1488.57,1637.43,1888.71,2217.29,2618.29,3040.29,3463.43,3791.57,4168.14,4629.86,4923.29,5192.29,5381.43,5514.29,5624.86,5713.86,5771.57,5828.71,5880.71,5921.57,-1,-1
CO,ADAMS,39.69,104.81,12.86,125.43,342.86,633.57,924.43,1327.86,1772.86,2226.29,2601.14,2880.57,3243.14,3567.86,3736.29,3899.43,4127.57,4381.14,4754.86,5101.86,5571.43,6067.29,6477.43,6814.14,7199.29,7550.43,7851.43,8114,8514.71,9115.43,9834.57,10708.43,11866.43,13394,15555.57,18329.43,22243.86,26013.71,29302.43,32528.14,35426,37554.57,39256.29,41215.29,43205.71,44555.86,45502,46450.71,47264.29,47886.71,48600.86,49333.57,50000,50636.57,51245.29,-1,-1
CO,ALAMOSA,37.46,105.87,0.14,2.29,5,7,8.57,10,17.57,31.86,44.29,58.86,80.71,101.86,130,172.43,192.14,201.86,204.71,211.14,220.86,224.29,230.57,234,236.71,238,238.86,240.43,241.43,243.43,254.14,266.57,288.14,313.86,365.86,408.29,470.57,539.29,628.86,726,825.14,888.43,919.57,967.57,1022.29,1083,1127.43,1175.14,1213.43,1236.86,1261.14,1291,1314.14,1331.43,1337.71,-1,-1
CO,ARAPAHOE,39.69,104.81,30.71,251.14,605,1065.29,1537.57,2150,2711.14,3269.14,3706.71,4049.29,4366.71,4638,4796.14,4948.86,5151.14,5357,5653.14,6031.71,6524.29,6983.29,7306.71,7574.86,7903.71,8211.86,8428,8662.29,9013.29,9406.57,9856.71,10466.43,11256.86,12292.14,14005,16481.43,20026.57,23749.71,26984.29,30344.29,33335.43,35630.71,37465.14,39335.43,41615.43,43327.57,44518.43,45796,46871,47763.57,48596.86,49427.43,50149.86,50954.71,51593,-1,-1
CO,ARCHULETA,37.02,107.4,0.14,2.43,6,6.43,8,8,8,8,8,8,8,8,8,8.14,9.29,11.86,16.14,24.86,32,34.86,39.14,43.29,46.43,48,48,48.29,53.86,54.43,56.86,59,63.14,67.71,71.43,88.29,127.57,212,292.71,393.29,426.71,456.57,487,525.57,557.86,583.57,601.43,611.86,622.86,629,641,669.43,694.57,717.43,739,-1,-1
CO,BACA,37.1,102.57,2.57,9,9.86,10,10,11.43,12,12,12,12,12,12,12.14,13.57,14,14,14,14,14,14.71,15,15.29,16.57,17.14,17,17.14,17.71,18,20.14,24.29,30.43,36.86,39.86,44.71,66.71,107.57,134.57,156,164.14,178.29,198.43,210.14,244.57,261.43,265.29,269,269.71,270.29,272,273.43,274.14,276.86,-1,-1,-1
CO,BENT,38.1,103.15,0.29,1,1.57,2,2.29,3,3.14,4,4.57,4,4.86,5,5,8.29,9.71,11,11,11.14,11,11,11,11,11,11.86,13.57,16.71,22.43,30.29,55.71,137.71,312.43,563.14,809.14,979.57,1091.71,1199.57,1256.71,1278,1286.71,1317.43,1387.14,1455.86,1475.29,1480.43,1482.71,1483.71,1483.43,-1,-1,-1,-1,-1,-1,-1,-1
CO,BOULDER,39.93,105.27,52.14,120.71,210.86,303.14,416,566.71,706.43,799.14,880.14,948.86,995.43,1035.71,1143.86,1299,1397.43,1478.29,1590.71,1707.71,1844.57,2002.57,2112.71,2174.14,2259,2350.29,2583.86,3073.14,4010.29,4497.86,4716.71,4924.14,5209.71,5651.29,6404.57,7618.86,9163.86,10433.57,11591.14,12586.29,13379.43,14020.14,14609.71,15412.43,16061.57,16564.57,17064.29,17503.43,17943.86,18362.86,18732.57,19080.14,19416.43,19807.86,20209.57,-1,-1
CO,BROOMFIELD,39.94,105.06,3.57,19.29,49,82.71,104.57,140.43,170.86,198.86,212.43,222.57,241.43,255.86,266.14,280.29,297.14,318,344.86,363.57,383.29,419.71,472.43,493.57,516.14,535.43,548.57,570,602,648.71,695.71,743.14,809.14,932.43,1114.43,1294.43,1550.29,1821.43,2049.14,2292.57,2470.14,2615.43,2746.86,2885.43,3052.14,3183.14,3320.14,3420.86,3536.57,3599.29,3663.57,3754.57,3879.43,3977.86,4072.71,-1,-1
CO,CHAFFEE,38.53,106,0.86,10.14,20.14,26.86,36,62.71,66.86,68,69,70,73.14,77.29,78,78,77.57,77.29,99.57,175,249,285.71,299.29,304.43,309,315.29,316.71,318,320.29,331,336.86,353,365.57,384.86,425,458,490.57,555.14,630.57,720.71,806.29,899.57,988.86,1074.14,1155.43,1210,1252.86,1299.71,1341.29,1374.57,1407.57,1439.43,1463.71,1475.29,1482.86,1493.71,-1
CO,CHEYENNE,38.85,102.17,3.71,5,5,5,5,5,5,5,5,5,7.14,7.57,8,8.57,9,9,9,9,9.71,12.71,14,14,14,14,14.86,15,16,26.86,48.57,60.71,74.71,84.57,85.86,87,90.71,103.71,108.29,113.71,119,124.57,124,125,125,125,125,125.86,-1,-1,-1,-1,-1,-1,-1,-1,-1
CO,CLEAR CREEK,39.78,105.6,0.43,3,5.71,9.71,11,12.29,13,13.57,15.43,16,16.14,17,17,17.86,18,19.86,21,22.57,24.71,26.43,29.29,30.71,32.29,34.43,35.71,36,36.43,37.57,43.29,53.86,61.29,65.86,83,100,129,158.29,182.86,203.57,226.14,243.71,262.86,281.86,309.43,327.86,338,342.29,348.43,352.57,356.14,360,367.14,374.86,383.43,394.57,-1
CO,CONEJOS,37.07,106.01,0.86,1,1,1.43,4,5.29,10.29,12.57,14.71,17,20,21.29,22.71,23,26.29,30.14,31,31,31,31,33,36.43,39.57,49.57,64.57,77.43,99.14,120.43,145.14,166,208.14,243,281.86,301.86,317.86,337.43,365.71,386.86,402.86,413.14,422.57,430.71,440.43,446.43,452.86,460,460,-1,-1,-1,-1,-1,-1,-1,-1
CO,COSTILLA,37.43,105.51,2.14,3,3,3,3,3,3.29,3.71,3.57,6,8.43,14.57,17.71,20.57,22,22,22,22,22,22.71,24.57,28.29,32.14,32,32,32,32,32.57,33.43,34.57,36,41,49.14,59.86,72.43,84.86,94.57,124.71,150.86,158.71,163.43,170.71,173.29,175.86,178.71,178.71,174.43,180.86,187.86,192,195.14,199.14,-1,-1,-1
CO,CROWLEY,38.19,103.85,0.29,1,1,1.57,2,2,3.14,27,39,53.43,63.57,65.43,66.71,68.29,69.71,70.57,71,71.57,72.14,72,72,73,73,73,73,73,73,73.14,74,75.14,79.57,87.57,107.86,204.14,541.57,921.86,1170,1318.57,1415,1548.43,1621.29,1656.14,1679.43,1725.71,1758.14,1796.14,1865,1915.43,1951.29,1991.57,2066.71,2090.14,2117.57,2135.57,-1
CO,CUSTER,38.13,105.46,1.86,2,2,2,2,2,2,2,2,2,2,2,2,2.14,4.71,8.57,10,10.29,11,12.57,13.29,16.71,17,17,17,17,18,18.43,19,20,25,35.57,49.29,56.43,70.57,93.86,119.29,142.43,146.14,149.14,153.43,155.86,158.29,159.86,161.14,163,163.86,164,164,164.29,165.43,-1,-1,-1,-1
CO,DELTA,38.78,107.93,0.14,1.14,3.43,6.86,18.86,28,47.71,54,54.57,62.71,68.57,74,76.71,79.86,81.86,83.57,83.71,87.14,96,106.29,120.71,132.43,140.86,157.86,169,174,182.71,188,191.14,192.86,194.71,199.57,216,259,333.29,450.14,598,783.86,1034.29,1234.14,1485.71,1643.29,1867.29,2073.86,2216.14,2313.29,2375.71,2413.29,2437.43,2465,2483.29,2495.29,2506.29,2533,-1
CO,DENVER,39.59,105.01,269.57,649,1033,1558.29,2226,3003.29,3772.86,4367.71,4956.57,5467,5968,6234,6501.86,6832.57,7211.14,7653.71,8167.14,8809.29,9535.43,10032.57,10418.43,10744.71,11090.71,11381.86,11659.43,12148,12817.14,13526.71,14363.29,15465.86,16758.43,18861.43,21842.57,26001,30722.71,35129,38519,41604,43973.43,45905.43,47627.29,50417.43,52597.57,53993.71,55327.71,56343.57,57420.57,58275.14,59255,60169.14,61258.14,62147.86,63264,-1,-1
CO,DOLORES,37.65,108.82,1.29,1.43,1,1,1.29,2,2,2,2.57,3,3,3,3,3,3,3,3,3.14,8.71,17.29,29.86,39.86,47.14,49.14,52.29,54.43,55,59.86,62,62.57,64.29,66.43,68.14,69,68.14,67,67,-1,-1,-1,-1,-1,-1,-1,-1,-1,-1,-1,-1,-1,-1,-1,-1,-1,-1
CO,DOUGLAS,39.37,104.85,71.29,174.29,263.57,333.86,404.86,484.86,568.43,621.86,663.43,699.29,741.29,779.43,827,896.14,979.57,1087.14,1257.14,1436,1592.14,1698.86,1787,1886.71,2055,2156.29,2270.86,2407,2619.57,2835.14,3034.86,3292.57,3590.57,4196.14,5066,6460.71,8270,10093.43,11645.57,13217.86,14319.86,15166.14,15944.57,16907.86,17871,18480.57,19090.29,19783.71,20420.57,21051.86,21578,22112,22721.14,23153.43,23669.57,-1,-1
CO,EAGLE,39.87,106.7,89.29,250.14,370.43,464.43,489.14,537.14,551,561.14,572.43,581.14,593.14,612.86,629.43,660.14,691.57,722.57,786.29,870.86,985.29,1081.29,1130,1154.86,1167.43,1183.43,1194.86,1216,1239,1259.57,1283.71,1323.86,1360.43,1440.43,1560.14,1728.57,1932.29,2146.14,2415.43,2659.29,2917.71,3124,3290.43,3502.57,3755.29,4040,4251.29,4438.14,4636.14,4781.57,4940.86,5118.71,5283.29,5421.14,5566.29,-1,-1
